     3.03           O                   M                   RINEX VERSION / TYPE
Rokubun             UNKN                2018-12-27 18:49:14 PGM / RUN BY / DATE
UNKN                                                        MARKER NAME
SMARTPHONE                                                  MARKER TYPE
UNKN                UNKN                                    OBSERVER / AGENCY
UNKN                UNKN                AndroidOS >7.0      REC # / TYPE / VERS
UNKN                internal                                ANT # / TYPE
        0.0000        0.0000        0.0000                  APPROX POSITION XYZ
        0.0000        0.0000        0.0000                  ANTENNA: DELTA H/E/N
G    8 C1C L1C D1C S1C C5X L5X D5X S5X                      SYS / # / OBS TYPES
R    4 C1C L1C D1C S1C                                      SYS / # / OBS TYPES
J    8 C1C L1C D1C S1C C5X L5X D5X S5X                      SYS / # / OBS TYPES
C    4 C1I L1I D1I S1I                                      SYS / # / OBS TYPES
E    8 C1C L1C D1C S1C C5X L5X D5X S5X                      SYS / # / OBS TYPES
  2018    12    17    07    29    46.9997760                TIME OF FIRST OBS
  2018    12    17    07    39    39.0001580                TIME OF LAST OBS
                                                            END OF HEADER
> 2018 12 17 07 29 46.9997760  0 20
G01  24848661.98800   -186721.82810     -1789.37100        31.62000  24848652.69500   -285238.49210     -1339.49600        18.00500
G10  21154062.60700   -439766.77110     -4051.89200        35.92800  21154066.50300   -662449.12810     -3022.82100        17.84700
G12  22040988.09800   -371387.64400     -3434.39700        30.34500         0.00000         0.00000         0.00000         0.00000
G14  21442201.53200     16251.09800       119.33700        32.68900         0.00000         0.00000         0.00000         0.00000
G20  23116961.51800   -563924.61500     -5274.27800        32.56900         0.00000         0.00000         0.00000         0.00000
G25  20974174.53800   -136052.37500     -1313.90800        39.93300  20974174.24100   -202006.83400      -981.18500        37.96800
G31  21864685.25100     80072.24800       696.26200        30.06900         0.00000         0.00000         0.00000         0.00000
G32  20552982.62400    -83436.91400      -809.90500        37.88600  20552980.82700   -123047.40200      -604.91200        31.42200
R06  21545797.81200   -510901.23200     -5039.18200        28.37300
R09  19268204.05700   -266985.11800     -2561.14100        32.92700
R16  22883497.24500   -597104.72610     -5655.34100        24.36500
R07  19195992.75200   -175856.43200     -1708.42600        33.17800
R08  21110284.21200    175950.04500      1632.86800        30.29400
C04  39144667.67000    -17329.05700     -1593.92400        35.97700
C06  36009642.60300  -1512772.83400     -1541.98000        29.54300
E04  26942193.96600     65918.67100       916.37200        26.15100  26942219.14600     58955.93100       683.02900        23.49100
E07  28736244.07200   -282409.29810     -4243.89800         8.21600  28736303.42900  -1216956.25510     -3160.98200         7.00000
E19  23361190.74300    -68444.73700      -968.45900        25.70000  23361191.94300    -68432.09200      -720.36400        25.73400
E21  23523591.61300    -37143.57900      -950.70600        30.66700  23523596.71300    -46118.50100      -710.09900        26.47800
E27  24922027.49800   -147941.49200     -3646.37800        34.89900  24922035.89100   -147128.74400     -2722.96400        31.80900
> 2018 12 17 07 29 47.9997750  0 20
G01  24848649.07000   -188512.07110     -1790.24300        32.65800  24848636.47500   -286575.31610     -1338.08900        19.60600
G10  21154476.89300   -443819.44210     -4052.67100        35.32400  21154478.08800   -665467.80310     -3031.82300        24.37600
G12  22041289.06200   -374822.91200     -3435.26800        32.36400         0.00000         0.00000         0.00000         0.00000
G14  21441820.16600     16369.85600       118.75800        34.54100         0.00000         0.00000         0.00000         0.00000
G20  23117607.84400   -569199.37800     -5274.76300        33.12400         0.00000         0.00000         0.00000         0.00000
G25  20974065.98900   -137367.31300     -1314.93800        39.81000  20974066.88800   -202988.76900      -981.93500        36.86300
G31  21864191.46600     80767.84700       695.60000        31.78600         0.00000         0.00000         0.00000         0.00000
G32  20552778.73600    -84247.50700      -810.59300        38.03700  20552779.33800   -123652.64800      -605.24600        30.87800
R06  21546376.38700   -515941.20100     -5039.96900        27.96400
R09  19268319.45500   -269547.31000     -2562.19200        34.08700
R16  22884203.22800   -602761.58610     -5657.65700        23.76400
R07  19195946.55300   -177566.02700     -1709.59500        34.90300
R08  21109640.22900    177582.19700      1632.15200        30.20900
C04  39144615.47700    -18923.32400     -1594.26800        35.95100
C06  36009584.11400  -1514315.18100     -1542.34700        30.25300
E04  26941693.28400     66833.18100       909.77100        27.39400  26941691.18600     59638.78300       682.85300        25.36300
E07  28736694.63200   -286655.14710     -4243.90600         7.36100  28736750.99200  -1220117.23810     -3160.98200         7.00000
E19  23361014.73600    -69410.20200      -970.31100        27.14300  23361018.03400    -69153.00200      -720.91000        26.10900
E21  23523419.20500    -38095.19110      -951.61300        32.37300  23523421.00700    -46829.00710      -711.12500        26.24600
E27  24922363.53600   -151588.50300     -3647.01200        35.41200  24922372.83300   -149852.08500     -2723.34100        31.31800
> 2018 12 17 07 29 48.9997740  0 20
G01  24848722.01600   -190303.45110     -1791.38000        34.02400  24848693.23700   -287912.97310     -1334.47000        20.28300
G10  21154956.35500   -447873.09910     -4053.65700        33.46500  21154962.05300   -668494.32410     -3027.71200        25.61700
G12  22041661.20600   -378258.74000     -3435.82800        31.93200         0.00000         0.00000         0.00000         0.00000
G14  21441513.57900     16488.05200       118.19600        34.36600         0.00000         0.00000         0.00000         0.00000
G20  23118327.14200   -574474.81100     -5275.43300        33.52700         0.00000         0.00000         0.00000         0.00000
G25  20974032.80700   -138683.46400     -1316.15000        39.71900  20974031.30700   -203971.63400      -982.86500        37.01400
G31  21863764.05800     81462.59200       694.74500        34.62400         0.00000         0.00000         0.00000         0.00000
G32  20552647.82400    -85058.86900      -811.36200        37.97900  20552646.02700   -124258.52400      -605.87700        30.88000
R06  21547042.92000   -520981.97210     -5040.69700        26.92600
R09  19268530.30600   -272110.61900     -2563.30900        34.38000
R16  22884986.38100   -608418.93810     -5658.00200        23.93900
R07  19195982.92800   -179276.81100     -1710.78500        34.93500
R08  21109051.24100    179213.54400      1631.34600        30.36600
C04  39144635.66200    -20518.03100     -1594.70700        35.96400
C06  36009595.00300  -1515858.04500     -1542.86400        30.45100
E04  26941212.81400     67747.02300       915.84600        28.75400  26941229.30400     60321.31700       682.53300        26.41900
E07  28737216.06700   -290900.61310     -4245.84900         8.18100  28737276.02500  -1223278.22010     -3160.98200         7.00000
E19  23360915.30500    -70375.01900      -966.62200        27.19500  23360914.10500    -69874.40800      -721.40600        26.48200
E21  23523313.77500    -39047.58700      -952.39600        32.64200  23523315.57700    -47540.23600      -711.22900        27.47100
E27  24922762.95900   -155236.20800     -3647.70500        35.20900  24922782.14500   -152576.02900     -2723.94400        31.13900
> 2018 12 17 07 29 49.9997730  0 20
G01  24848766.48400   -192095.56010     -1792.10900        34.03100  24848745.79700   -289251.35610     -1338.83800        19.45600
G10  21155442.41800   -451927.43110     -4054.33200        33.54400  21155448.11500   -671521.80610     -3027.83800        24.43700
G12  22042030.64400   -381695.89500     -3437.15500        31.51400         0.00000         0.00000         0.00000         0.00000
G14  21441200.99300     16605.82900       117.77600        34.16700         0.00000         0.00000         0.00000         0.00000
G20  23119044.94300   -579750.51600     -5275.70500        33.70800         0.00000         0.00000         0.00000         0.00000
G25  20973996.93000   -140000.56500     -1317.10200        40.11800  20973996.03100   -204955.14000      -983.50600        36.94100
G31  21863341.44900     82156.82000       694.22700        34.91900         0.00000         0.00000         0.00000         0.00000
G32  20552516.61600    -85870.75000      -811.88100        38.09600  20552514.21700   -124864.76500      -606.24100        30.88100
R06  21547696.57000   -526023.54700     -5041.57400        25.75200
R09  19268710.87600   -274674.86600     -2564.24700        34.14100
R16  22885738.36300   -614076.41100     -5657.47300        24.27000
R07  19196031.59200   -180988.55600     -1711.74500        34.96500
R08  21108469.13700    180844.49200      1630.94800        30.80900
C04  39144656.44500    -22112.89900     -1594.86800        35.65100
C06  36009604.99300  -1517401.09800     -1543.05300        30.45800
E04  26940772.21800     68661.20200       913.74200        28.39100  26940770.42000     61003.54000       682.22400        25.36700
E07  28737738.10300   -295146.46210     -4245.84900         7.32100  28737804.65800  -1226439.20310     -3160.98200        11.13900
E19  23360814.97000    -71341.25700      -964.69300        27.72400  23360814.66900    -70596.14400      -721.73600        26.41100
E21  23523209.24900    -40000.61600      -953.02900        32.69200  23523211.04600    -48251.91800      -711.68200        27.32300
E27  24923174.67000   -158884.36200     -3648.15400        34.90200  24923189.66000   -155300.29100     -2724.26200        30.59000
> 2018 12 17 07 29 50.9997720  0 20
G01  24848813.64800   -193888.53810     -1792.97800        32.66900  24848801.95600   -290590.52510     -1343.03400        20.07600
G10  21155929.68000   -455982.61810     -4055.18700        33.11200  21155933.57600   -674550.11610     -3028.59800        25.41900
G12  22042406.68300   -385133.98900     -3438.09400        31.87800         0.00000         0.00000         0.00000         0.00000
G14  21440896.50000     16723.11200       117.28400        34.34500         0.00000         0.00000         0.00000         0.00000
G20  23119765.14400   -585026.72800     -5276.21200        34.45000         0.00000         0.00000         0.00000         0.00000
G25  20973962.25200   -141318.61600     -1318.05100        39.97600  20973961.05200   -205939.40900      -984.26900        37.04700
G31  21862929.03400     82850.44000       693.62000        35.26800         0.00000         0.00000         0.00000         0.00000
G32  20552388.40100    -86683.24900      -812.49900        38.14100  20552384.50500   -125471.53200      -606.76700        30.74400
R06  21548364.30300   -531065.68400     -5042.13700        25.35400
R09  19268901.34100   -277240.07200     -2565.20600        34.29600
R16  22886520.31600   -619734.32600     -5657.91600        24.55600
R07  19196061.96900   -182701.26900     -1712.71300        34.92200
R08  21107887.94000    182474.80300      1630.31100        30.99800
C04  39144677.53000    -23708.08100     -1595.18200        35.75900
C06  36009615.88700  -1518944.47000     -1543.37200        30.48000
E04  26940298.64500     69574.18200       911.85200        29.13000  26940311.23500     61685.68600       682.14600        26.61700
E07  28738260.74100   -299393.28410     -4245.84900         7.00000  28738322.79900  -1229600.18510     -3160.98200         7.00000
E19  23360702.94400    -72305.25500      -967.15500        27.75200  23360711.94000    -71318.39500      -722.25100        26.78500
E21  23523108.01600    -40954.37200      -953.75600        32.76400  23523107.41300    -48964.14200      -712.22500        27.35400
E27  24923580.98600   -162533.08900     -3648.72800        35.01300  24923598.07400   -158024.98100     -2724.69000        30.70900
> 2018 12 17 07 29 51.9997710  0 20
G01  24848782.74300   -195682.72710     -1794.18900        31.24300  24848787.23700   -291930.05610     -1344.59200        19.74600
G10  21156343.06300   -460038.74500     -4056.12700        33.32600  21156347.86200   -677579.08200     -3028.96600        26.09200
G12  22042716.93900   -388573.14800     -3439.16000        31.91700         0.00000         0.00000         0.00000         0.00000
G14  21440516.33400     16839.71000       116.59700        34.12900         0.00000         0.00000         0.00000         0.00000
G20  23120411.47000   -590303.60100     -5276.87300        34.62100         0.00000         0.00000         0.00000         0.00000
G25  20973853.69800   -142637.92700     -1319.31000        39.63100  20973854.89800   -206924.61900      -985.21000        37.14100
G31  21862443.04200     83543.11000       692.67000        36.06300         0.00000         0.00000         0.00000         0.00000
G32  20552182.11700    -87496.60500      -813.35600        38.13500  20552181.51500   -126078.91300      -607.38100        30.78000
R06  21548933.58100   -536108.36810     -5043.07200        24.27300
R09  19269034.12000   -279806.54600     -2566.47400        34.66100
R16  22887218.20300   -625392.96910     -5660.71200        24.45400
R07  19196026.86700   -184415.23600     -1713.96700        34.46800
R08  21107234.66500    184104.18700      1629.38500        31.27800
C04  39144626.23500    -25303.80300     -1595.72100        35.90000
C06  36009554.10000  -1520488.43900     -1543.96900        30.75800
E04  26939774.87700     70487.61000       913.88700        28.56300  26939778.47600     62367.38700       681.70100        26.17000
E07  28738711.59800   -303640.10810     -4245.85700         7.00000  28738767.96200  -1232761.16810     -3160.98200         7.00000
E19  23360538.33200    -73273.23600      -969.85300        27.28300  23360538.93000    -72041.18500      -722.79100        26.28500
E21  23522931.41100    -41909.07300      -954.70100        32.97400  23522932.30900    -49677.07700      -712.93500        27.50200
E27  24923912.53100   -166182.64100     -3649.55200        35.16600  24923934.41400   -160750.35200     -2725.37100        30.98500
> 2018 12 17 07 29 52.9997700  0 20
G01  24848837.40200   -197477.80810     -1795.08100        31.50900  24848836.20200   -293270.50610     -1339.33100        20.12900
G10  21156826.43000   -464095.83510     -4057.09100        32.79500  21156831.52500   -680608.69910     -3030.40600        25.00900
G12  22043091.47800   -392013.49400     -3440.34600        36.13700         0.00000         0.00000         0.00000         0.00000
G14  21440209.74700     16955.75600       116.04600        34.63800         0.00000         0.00000         0.00000         0.00000
G20  23121135.26500   -595581.00100     -5277.40000        35.18700         0.00000         0.00000         0.00000         0.00000
G25  20973816.92200   -143958.35600     -1320.43000        39.63100  20973819.91900   -207910.67500      -986.05600        37.02400
G31  21862024.62900     84235.14200       692.03200        35.99800         0.00000         0.00000         0.00000         0.00000
G32  20552051.80300    -88310.65700      -814.05200        37.98100  20552049.70500   -126686.80700      -607.89500        30.99700
R06  21549598.01600   -541152.42210     -5043.71500        24.05500
R09  19269229.98600   -282374.04500     -2567.49900        34.59100
R16  22888002.56000   -631051.98410     -5660.67400        24.84900
R07  19196047.04900   -186130.27300     -1715.03700        34.60500
R08  21106648.36300    185733.02000      1628.83300        31.04600
C04  39144646.71700    -26899.84900     -1596.04600        35.76100
C06  36009563.79300  -1522032.88200     -1544.44300        30.85200
E04  26939297.10700     71399.43200       911.99700        28.14400  26939321.08800     63048.81000       681.42300        25.86200
E07  28739233.93600   -307887.71510     -4246.82400         7.00000  28739294.19600  -1235922.15110     -3160.98200         7.00000
E19  23360437.09900    -74238.64500      -967.04100        27.34200  23360439.49800    -72764.41500      -723.23000        26.72100
E21  23522827.47700    -42864.58300      -955.51000        33.03400  23522827.77800    -50390.59000      -713.51300        27.14000
E27  24924324.24300   -169832.81300     -3650.17200        35.22000  24924344.32800   -163476.16500     -2725.81400        30.53200
> 2018 12 17 07 29 53.9997690  0 20
G01  24848894.46000   -199273.88210     -1796.07400        31.34400  24848894.15800   -294611.64410     -1335.61400        20.29600
G10  21157309.49100   -468153.84400     -4058.00800        32.71300  21157319.08400   -683638.94900     -3030.24900        25.37800
G12  22043459.42000   -395454.78800     -3441.29400        35.04900         0.00000         0.00000         0.00000         0.00000
G14  21439903.45600     17071.17100       115.41500        34.96700         0.00000         0.00000         0.00000         0.00000
G20  23121851.26500   -600859.01400     -5278.01200        35.74500         0.00000         0.00000         0.00000         0.00000
G25  20973782.24400   -145279.90100     -1321.54400        39.45100  20973785.84300   -208897.50600      -986.83100        36.98900
G31  21861617.90800     84926.36300       691.22100        35.80100         0.00000         0.00000         0.00000         0.00000
G32  20551922.99000    -89125.46400      -814.80700        37.98700  20551919.69200   -127295.28200      -608.47500        31.13800
R06  21550244.76900   -546197.23810     -5046.68500        24.45700
R09  19269428.24600   -284942.70600     -2568.66100        34.43300
R16  22888791.71500   -636711.54710     -5659.21200        24.49400
R07  19196081.32100   -187846.57700     -1716.30400        34.65200
R08  21106058.77300    187360.98100      1627.96100        30.68800
C04  39144667.80100    -28496.32300     -1596.47400        35.66400
C06  36009574.98300  -1523577.66800     -1544.78600        30.61800
E04  26938858.30800     72311.49900       911.45600        27.22200  26938861.30600     63729.72800       680.91800        25.96400
E07  28739756.27300   -312135.51510     -4246.83200         7.00000  28739813.83200  -1239083.13310     -3160.98200         7.00000
E19  23360328.37100    -75207.67300      -968.72500        27.94800  23360336.16700    -73488.21700      -723.80200        26.80700
E21  23522722.34800    -43820.97000      -956.38700        32.99000  23522724.44700    -51104.73800      -714.14800        27.46300
E27  24924734.15700   -173483.66100     -3650.84800        34.77000  24924752.14400   -166202.42000     -2726.25500        30.85500
> 2018 12 17 07 29 54.9997680  0 20
G01  24848910.02100   -201070.96710     -1797.08500        32.13300  24848876.74300   -295953.60310     -1337.21000        20.04900
G10  21157728.57100   -472212.68710     -4058.84400        32.06700  21157734.26800   -686669.97910     -3031.59000        24.74400
G12  22043752.59200   -398897.05300     -3442.26500        35.52000         0.00000         0.00000         0.00000         0.00000
G14  21439523.89200     17186.10100       114.93000        35.32500         0.00000         0.00000         0.00000         0.00000
G20  23122499.99000   -606137.56600     -5278.55300        35.76200         0.00000         0.00000         0.00000         0.00000
G25  20973675.19100   -146602.55300     -1322.65200        39.33500  20973679.98600   -209885.22000      -987.71400        37.09600
G31  21861128.91800     85616.86000       690.49700        35.51600         0.00000         0.00000         0.00000         0.00000
G32  20551720.90400    -89940.98600      -815.52200        38.06600  20551716.40600   -127904.26000      -608.97800        30.93700
R06  21550840.72900   -551242.80700     -5045.56900        25.41300
R09  19269543.33500   -287512.41400     -2569.70800        34.38800
R16  22889474.61200   -642371.68010     -5660.54500        25.14900
R07  19196042.62100   -189563.85400     -1717.27600        34.58600
R08  21105387.50700    188988.30300      1627.32100        30.03300
C04  39144616.51100    -30093.15100     -1596.82900        35.71500
C06  36009516.79600  -1525122.92500     -1545.25700        30.48100
E04  26938315.05700     73222.60400       915.13700        28.01100  26938329.44500     64410.53300       680.80500        26.40500
E07  28740226.61700   -316384.09710     -4247.80000         7.00000  28740268.28800  -1242244.11610     -3160.98200         7.00000
E19  23360164.95800    -76175.53900      -970.03600        27.92900  23360163.45800    -74212.54100      -724.32300        27.02700
E21  23522546.94300    -44778.08200      -957.11200        32.93500  23522549.04100    -51819.50600      -714.76800        27.36000
E27  24925071.39600   -177135.16900     -3651.50900        34.97400  24925089.98500   -168929.18000     -2726.76000        31.03700
> 2018 12 17 07 29 55.9997670  0 21
G01  24848955.98900   -202869.05110     -1798.08400        31.87100  24848934.70000   -297296.47010     -1344.92400        19.03800
G10  21158209.23700   -476272.48700     -4059.80000        31.92000  21158221.23000   -689701.66500     -3031.68600        25.22500
G12  22044119.93300   -402340.41600     -3443.36200        34.82600         0.00000         0.00000         0.00000         0.00000
G14  21439216.10100     17300.34100       114.24000        35.65700         0.00000         0.00000         0.00000         0.00000
G20  23123218.69100   -611416.66000     -5279.09400        35.98300         0.00000         0.00000         0.00000         0.00000
G22  25208003.02300     17762.84900      1489.25400        29.09300         0.00000         0.00000         0.00000         0.00000
G25  20973643.21000   -147926.32200     -1323.76900        39.50600  20973645.60900   -210873.77300      -988.55200        37.01800
G31  21860712.90500     86306.60000       689.73900        34.86000         0.00000         0.00000         0.00000         0.00000
G32  20551589.69100    -90757.25000      -816.26400        38.14400  20551585.49400   -128513.78600      -609.52500        30.91000
R06  21551507.56700   -556289.41210     -5044.52800        25.75000
R09  19269747.59400   -290083.26500     -2570.85100        34.58500
R16  22890254.47100   -648032.24500     -5660.56500        26.18100
R07  19196080.79300   -191282.42000     -1718.56700        34.65800
R08  21104782.32400    190614.83300      1626.53100        29.10300
C04  39144637.29400    -31690.41000     -1597.25900        35.81200
C06  36009528.58300  -1526668.64400     -1545.72000        30.39500
E04  26937863.66800     74135.24100       911.79900        27.79300  26937868.76300     65090.92700       680.39400        25.91400
E07  28740749.25600   -320632.87310     -4247.80800         7.00000  28740787.93000  -1245405.09810     -3160.98200         7.00000
E19  23360062.22500    -77146.26100      -967.97900        28.13300  23360061.32600    -74937.44300      -724.90200        26.61500
E21  23522442.41200    -45736.12800      -958.04600        33.00900  23522444.51000    -52534.93100      -715.42600        27.39200
E27  24925472.91700   -180787.40600     -3652.23600        34.80100  24925498.99600   -171656.47200     -2727.29100        31.11800
> 2018 12 17 07 29 56.9997660  0 21
G01         0.00000   -204667.96310     -1798.91200        29.30300  24848992.05900   -298639.85210     -1348.26000        19.91600
G10  21158701.29400   -480333.07310     -4060.58600        32.01900  21158707.58900   -692733.88610     -3032.39200        25.05600
G12  22044493.87300   -405784.69600     -3444.28000        34.79900         0.00000         0.00000         0.00000         0.00000
G14  21438914.90600     17414.16600       113.82500        35.70500         0.00000         0.00000         0.00000         0.00000
G20  23123937.69200   -616696.19500     -5279.53500        36.32100         0.00000         0.00000         0.00000         0.00000
G22  25207427.82000     19251.62200      1488.77300        28.87500         0.00000         0.00000         0.00000         0.00000
G25  20973611.23200   -149251.16100     -1324.83900        39.53300  20973612.42700   -211863.08600      -989.31300        37.04900
G31  21860306.18400     86995.69100       689.09100        34.48800         0.00000         0.00000         0.00000         0.00000
G32  20551460.28000    -91574.10400      -816.85400        37.99800  20551455.18100   -129123.82200      -610.03600        31.02100
R06  21552160.31000   -561336.64800     -5047.23600        26.38200
R09  19269943.15400   -292655.04100     -2571.77600        34.27200
R16  22891025.63100   -653693.02800     -5660.78400        25.39400
R07  19196113.86600   -193001.94900     -1719.52800        34.97700
R08  21104173.84400    192240.75100      1625.91800        28.53400
C04  39144657.47500    -33287.91400     -1597.50400        35.86500
C06  36009539.77300  -1528214.69800     -1546.05400        30.56400
E04  26937396.98800     75046.11000       909.98500        27.22100  26937412.87600     65771.03100       680.10400        26.14400
E07  28741254.20400   -324881.45810     -4248.77500         8.80000  28741313.86200  -1248566.08110     -3160.98200         7.95600
E19  23359955.29800    -78112.33800      -968.10800        27.82200  23359960.09700    -75662.62000      -725.17800        26.72000
E21  23522340.28000    -46694.85300      -958.72400        32.79100  23522341.17900    -53250.80700      -715.87500        27.27000
E27  24925890.32600   -184440.10600     -3652.70000        34.82600  24925908.31300   -174384.15700     -2727.68500        31.12300
> 2018 12 17 07 29 57.9997640  0 21
G01  24848980.34100   -206467.68010     -1799.71600        27.32500  24848975.54200   -299983.76210     -1342.30000        20.67100
G10  21159115.58000   -484394.50610     -4061.43300        32.67900  21159121.57400   -695766.74810     -3033.29900        24.49300
G12  22044787.34200   -409229.84500     -3445.14900        36.13000         0.00000         0.00000         0.00000         0.00000
G14  21438531.14500     17527.49600       113.33000        35.95400         0.00000         0.00000         0.00000         0.00000
G20  23124588.21000   -621976.24500     -5280.05000        36.19500         0.00000         0.00000         0.00000         0.00000
G22  25206785.33800     20739.87900      1488.25700        28.37400         0.00000         0.00000         0.00000         0.00000
G25  20973504.77700   -150576.96400     -1325.80300        39.73300  20973506.57400   -212853.17500      -990.08900        36.95800
G31  21859833.38300     87684.11500       688.42400        32.74200         0.00000         0.00000         0.00000         0.00000
G32  20551257.89300    -92391.62000      -817.51600        37.91800  20551254.59500   -129734.32900      -610.50700        31.15500
R06  21552767.96100   -566384.62000     -5047.97100        25.40900
R09  19270064.54700   -295227.82700     -2572.78600        34.34500
R16  22891730.71600   -659354.35900     -5661.33100        25.39000
R07  19196084.46200   -194722.55200     -1720.60300        35.17200
R08  21103487.59200    193866.08100      1625.33000        28.52300
C04  39144607.08300    -34885.71000     -1597.79600        35.94200
C06  36009477.38900  -1529761.16100     -1546.46200        30.58700
E04  26936862.72800     75956.48600       911.05900        26.45500  26936880.71500     66451.06700       680.03600        25.91300
E07  28741705.36200   -329130.23410     -4248.77500         9.77100  28741761.72200  -1251728.95110     -3162.37300         7.00000
E19  23359784.98900    -79084.25000      -969.92200        27.58500  23359788.88400    -76388.36300      -725.74300        26.96500
E21  23522163.67500    -47654.30800      -959.45500        32.78700  23522166.37600    -53967.31800      -716.51100        27.28200
E27  24926229.36200   -188093.45700     -3653.35100        35.08400  24926245.85200   -177112.30000     -2728.14300        30.83900
> 2018 12 17 07 29 58.9997630  0 21
G01  24849044.59200   -208268.27010     -1800.59100        28.81300  24849030.20500   -301328.29810     -1338.48100        18.69500
G10  21159606.73800   -488456.54600     -4062.04100        32.99500  21159608.83600   -698800.12600     -3033.37800        24.29200
G12  22045157.68400   -412675.90900     -3446.06400        35.79400         0.00000         0.00000         0.00000         0.00000
G14  21438227.55500     17640.43500       112.93900        36.12600         0.00000         0.00000         0.00000         0.00000
G20  23125308.71200   -627256.60400     -5280.35900        36.24000         0.00000         0.00000         0.00000         0.00000
G22  25206211.63100     22227.79400      1487.91500        28.16500         0.00000         0.00000         0.00000         0.00000
G25  20973473.69400   -151903.76300     -1326.79900        39.73900  20973473.09600   -213843.88600      -990.71000        36.92300
G31  21859417.37000     88372.09300       687.97800        32.17100         0.00000         0.00000         0.00000         0.00000
G32  20551125.78100    -93209.68400      -818.06400        37.74800  20551124.88300   -130345.18400      -610.85600        30.85800
R06  21553438.99200   -571433.16700     -5048.54800        25.98000
R09  19270256.80900   -297801.56800     -2573.74100        34.08700
R16  22892513.27100   -665015.98800     -5661.62900        25.70600
R07  19196112.13800   -196444.00600     -1721.45400        35.36200
R08  21102906.99300    195490.89800      1624.81700        28.60600
C04  39144628.16700    -36483.72900     -1598.01900        35.91700
C06  36009488.57900  -1531307.75600     -1546.59500        30.51700
E04  26936408.93900     76866.82000       912.27900        27.08600  26936420.63100     67130.77500       679.70800        26.39900
E07  28742229.79800   -333380.95510     -4248.77500         8.91100  28742288.85800  -1254885.63410     -3149.77800         8.82200
E19  23359685.85400    -80054.02300      -973.89300        27.84300  23359687.05400    -77114.42400      -726.06100        26.98300
E21  23522060.34400    -48614.39000      -960.08200        32.76100  23522064.24400    -54684.24500      -716.92700        27.64200
E27  24926639.57700   -191747.27200     -3653.81500        34.87200  24926655.46500   -179840.80800     -2728.50800        30.84000
> 2018 12 17 07 29 59.9997630  0 21
G01  24849112.44300   -210069.80510     -1801.53500        29.52800  24849086.06300   -302673.73610     -1343.67200        19.28700
G10  21160099.39200   -492519.50800     -4062.96200        33.54600  21160099.09600   -701834.17700     -3034.05200        24.57000
G12  22045523.52800   -416122.85900     -3446.95000        36.50200         0.00000         0.00000         0.00000         0.00000
G14  21437923.06100     17752.87700       112.44200        36.23600         0.00000         0.00000         0.00000         0.00000
G20  23126026.51300   -632537.54200     -5280.93800        36.20400         0.00000         0.00000         0.00000         0.00000
G22  25205633.13000     23715.05300      1487.25900        27.88400         0.00000         0.00000         0.00000         0.00000
G25  20973440.21500   -153231.56800     -1327.80500        39.71400  20973439.61800   -214835.43900      -991.55400        36.80300
G31  21859009.44900     89059.26000       687.16700        31.24700         0.00000         0.00000         0.00000         0.00000
G32  20550998.46500    -94028.38000      -818.69600        37.59600  20550993.97100   -130956.62700      -611.44200        31.04300
R06  21554106.13100   -576482.63000     -5049.46300        26.28500
R09  19270457.46900   -300376.31300     -2574.74500        33.96500
R16  22893296.13100   -670678.02600     -5662.03800        26.54500
R07  19196156.30400   -198166.55600     -1722.54900        35.35000
R08  21102322.79500    197115.12800      1624.23100        28.42700
C04  39144649.54800    -38082.08300     -1598.35400        35.95600
C06  36009500.07000  -1532854.80900     -1547.05300        30.62900
E04  26935948.55900     77778.73700       912.07300        27.45300  26935962.94700     67810.27800       679.50300        26.41500
E07  28742752.73300   -337631.68210     -4248.78300         9.21100  28742807.59600  -1258045.98910     -3146.15800         7.00000
E19  23359584.62100    -81026.99700      -972.33800        27.87500  23359586.42300    -77840.94600      -726.52200        26.87100
E21  23521957.01700    -49575.27700      -960.88700        32.79200  23521960.61100    -55401.84500      -717.60100        27.37300
E27  24927057.58400   -195401.64800     -3654.37600        34.77900  24927064.77800   -182569.74500     -2728.93600        30.85700
> 2018 12 17 07 30 00.9997620  0 21
G01  24849174.30000   -211872.38110     -1802.57500        28.97200  24849144.62100   -304019.70810     -1344.18400        18.86900
G10  21160587.25300   -496583.41900     -4063.91100        33.85700  21160586.05700   -704868.88500     -3034.70700        24.63800
G12  22045892.07200   -419570.87400     -3448.01400        36.88700         0.00000         0.00000         0.00000         0.00000
G14  21437611.07300     17864.70300       111.82600        36.17900         0.00000         0.00000         0.00000         0.00000
G20  23126748.50800   -637818.99800     -5281.45500        36.24100         0.00000         0.00000         0.00000         0.00000
G22  25205059.42400     25201.63800      1486.58500        27.77500         0.00000         0.00000         0.00000         0.00000
G25  20973405.23700   -154560.53700     -1328.96900        39.73500  20973406.73700   -215827.85300      -992.41300        36.57200
G31  21858603.32600     89745.72600       686.46600        29.91500         0.00000         0.00000         0.00000         0.00000
G32  20550866.95500    -94847.83700      -819.45700        37.49500  20550863.95800   -131568.48000      -611.85300        31.07400
R06  21554763.97400   -581532.84400     -5050.21400        26.11800
R09  19270652.43100   -302952.17000     -2575.85600        33.71900
R16  22894080.18700   -676340.45700     -5662.43100        26.13700
R07  19196189.38100   -199890.23200     -1723.67700        35.50000
R08  21101751.48800    198738.62500      1623.49700        28.89700
C04  39144670.33100    -39680.81200     -1598.72800        35.79000
C06  36009509.45800  -1534402.28800     -1547.47900        30.95600
E04  26935492.67200     78688.04100       909.45900        26.79700  26935503.76100     68489.30300       679.02500        24.86900
E07  28743276.56600   -341882.02610     -4250.72700         8.35100  28743336.52500  -1261204.39610     -3165.19400         7.00000
E19  23359480.39100    -82001.02600      -975.87500        27.92500  23359486.98700    -78567.97500      -727.02900        26.41500
E21  23521854.58400    -50536.96900      -961.69200        32.78100  23521856.08000    -56119.98100      -718.13600        27.56900
E27  24927462.69900   -199056.74100     -3655.09300        34.73700  24927473.49200   -185299.18100     -2729.43600        30.76600
> 2018 12 17 07 30 01.9997600  0 21
G01  24849164.07800   -213675.78410     -1803.40300        26.39500  24849132.30200   -305366.57910     -1347.34500        17.84700
G10  21161003.34000   -500648.09200     -4064.67300        34.27800  21161003.03900   -707904.15100     -3035.26600        24.69900
G12  22046192.13300   -423019.84000     -3448.96600        37.62500         0.00000         0.00000         0.00000         0.00000
G14  21437238.40600     17975.99500       111.29200        36.49700         0.00000         0.00000         0.00000         0.00000
G20  23127391.53500   -643100.98100     -5281.98400        36.25700         0.00000         0.00000         0.00000         0.00000
G22  25204414.84300     26687.79600      1486.15800        27.26400         0.00000         0.00000         0.00000         0.00000
G25  20973303.27900   -155890.58000     -1330.04300        39.93800  20973302.38100   -216821.04700      -993.19500        36.70500
G31  21858129.02900     90431.56800       685.84200        28.44900         0.00000         0.00000         0.00000         0.00000
G32  20550664.26700    -95667.97100      -820.13400        37.04200  20550662.46900   -132180.95500      -612.47500        30.90600
R06  21555350.63700   -586583.84800     -5051.00400        26.00800
R09  19270768.72400   -305529.04200     -2576.87200        34.22500
R16  22894775.07200   -682003.52910     -5662.49600        26.34100
R07  19196159.07000   -201614.95800     -1724.72500        35.63200
R08  21101100.31100    200361.43200      1622.80700        28.61600
C04  39144620.24100    -41280.38500     -1599.57400        35.83800
C06  36009451.27000  -1535950.11800     -1547.83000        30.70100
E04  26934974.30000     79596.87200       904.78600        25.92400  26934971.60400     69168.20400       678.90100        23.08100
E07  28743728.32600   -346132.75310     -4250.72700         7.49100  28743784.68600  -1264365.39310     -3169.84300         7.00000
E19  23359302.28900    -82975.30900      -971.75100        27.90500  23359313.98100    -79295.53400      -727.55900        26.59200
E21  23521679.77600    -51499.43710      -962.46800        32.91400  23521683.97300    -56838.66810      -718.89800        27.21100
E27  24927805.63500   -202712.43700     -3655.69600        34.70200  24927813.72800   -188029.08900     -2729.90800        30.68600
> 2018 12 17 07 30 02.9997590  0 20
G01  24849238.52500   -215480.09410     -1804.31000        27.35900  24849191.45800   -306714.15010     -1352.26700        18.38600
G10  21161491.49700   -504713.76800     -4065.67600        34.23100  21161489.69900   -710940.18100     -3036.03000        24.88100
G12  22046561.87700   -426469.80500     -3449.96600        37.44700         0.00000         0.00000         0.00000         0.00000
G14  21436929.71600     18086.71900       110.72400        36.75300         0.00000         0.00000         0.00000         0.00000
G20  23128114.13500   -648383.52800     -5282.54700        35.86100         0.00000         0.00000         0.00000         0.00000
G22  25203845.03700     28173.22100      1485.42500        27.48300         0.00000         0.00000         0.00000         0.00000
G25  20973268.60100   -157221.66400     -1331.08400        39.97100  20973270.40300   -217815.09900      -994.05200        37.05500
G32  20550535.75500    -96488.83000      -820.85900        37.05000  20550532.15600   -132793.91100      -612.95700        30.81100
R06  21555995.58800   -591635.73600     -5051.88800        25.48300
R09  19270981.67300   -308107.08500     -2578.04400        34.58800
R16  22895547.43600   -687666.88600     -5663.35700        26.35000
R07  19196196.94600   -203340.84100     -1725.88300        35.83300
R08  21100514.31500    201983.45710      1621.85800        28.24500
C04  39144641.92200    -42879.33800     -1598.95300        35.91100
C06  36009460.36200  -1537498.44200     -1548.32400        30.71400
E04  26934501.62600     80504.99900       910.63200        27.05200  26934515.71700     69846.91200       678.70800        24.49200
E07  28744250.96500   -350384.45310     -4250.72700         7.00000  28744311.52100  -1267528.12110     -3160.98200         7.00000
E19  23359202.25600    -83947.07200      -975.50100        27.59800  23359213.04900    -80023.51600      -727.98300        26.86800
E21  23521577.94600    -52462.73500      -963.29800        33.09400  23521580.94300    -57558.06600      -719.39800        27.41200
E27  24928224.54500   -206368.78400     -3656.34700        34.88300  24928221.84500   -190759.48800     -2730.39900        30.91400
> 2018 12 17 07 30 03.9997580  0 20
G01  24849339.65400   -217285.53410     -1805.43900        28.41500  24849250.31300   -308062.03210     -1345.53900        17.50600
G10  21161978.45800   -508780.18610     -4066.41800        34.50000  21161976.05900   -713976.86310     -3036.42900        23.95300
G12  22046931.01900   -429920.76400     -3450.95900        37.35800         0.00000         0.00000         0.00000         0.00000
G14  21436624.62600     18196.92100       110.20200        37.19300         0.00000         0.00000         0.00000         0.00000
G20  23128830.43600   -653666.53500     -5283.00700        36.14200         0.00000         0.00000         0.00000         0.00000
G22  25203276.12500     29658.18700      1484.96600        27.83800         0.00000         0.00000         0.00000         0.00000
G25  20973239.62100   -158553.86700     -1332.20300        39.95500  20973237.52200   -218809.89300      -994.79400        36.78900
G32  20550402.14300    -97310.32700      -821.49600        36.99800  20550402.74500   -133407.39600      -613.48500        30.69800
R06  21556646.83900   -596688.33700     -5052.60100        26.20900
R09  19271179.03100   -310686.09000     -2579.00500        34.53800
R16  22896327.29500   -693330.75100     -5663.86500        26.31600
R07  19196231.21800   -205067.84400     -1727.00300        35.89500
R08  21099916.32200    203604.86700      1621.41100        29.19700
C04  39144663.00700    -44479.10200     -1599.76300        35.72000
C06  36009474.25200  -1539047.06900     -1548.62700        30.45900
E04  26934050.53800     81412.79900       907.25600        27.97300  26934055.33200     70525.17800       678.26600        25.96800
E07  28744774.19600   -354636.15510     -4250.73500         7.00000  28744831.15800  -1270689.10410     -3160.98200         7.19700
E19  23359109.41600    -84922.70900      -974.72400        27.58800  23359112.71500    -80751.97500      -728.45900        26.79000
E21  23521475.21200    -53426.77000      -964.03600        33.05700  23521477.91200    -58277.94400      -719.87800        27.64500
E27  24928633.85800   -210025.73700     -3656.95300        35.10500  24928633.26000   -193490.32200     -2730.83400        30.61800
> 2018 12 17 07 30 04.9997570  0 20
G01  24849314.14200   -219091.64610     -1806.11300        28.48100  24849234.69500   -309410.75710     -1344.92100        17.93100
G10  21162394.54100   -512847.32300     -4067.13700        34.45900  21162396.34300   -717013.98900     -3037.12600        24.23900
G12  22047231.08400   -433372.49900     -3451.73400        37.07000         0.00000         0.00000         0.00000         0.00000
G14  21436244.76100     18306.79300       109.87200        37.11400         0.00000         0.00000         0.00000         0.00000
G20  23129480.06000   -658949.92000     -5283.38500        35.95500         0.00000         0.00000         0.00000         0.00000
G22  25202634.54200     31142.72800      1484.54000        28.32100         0.00000         0.00000         0.00000         0.00000
G25  20973134.96300   -159886.94000     -1333.07300        39.94500  20973133.16600   -219805.36100      -995.46800        36.76800
G32  20550201.55700    -98132.34700      -822.02000        36.67400  20550201.85400   -134021.21000      -613.81400        30.61500
R06  21557241.29800   -601741.52200     -5053.18500        26.14800
R09  19271302.82300   -313265.95100     -2579.86100        34.45800
R16  22897028.18300   -698994.83900     -5664.08900        25.96600
R07  19196197.61300   -206795.69500     -1727.85100        35.56400
R08  21099245.36200    205225.77700      1620.91000        29.47400
C04  39144613.21200    -46079.09000     -1599.98800        35.63800
C06  36009414.26700  -1540595.96700     -1548.89800        30.57400
E04  26933518.37600     82320.97000       908.53600        28.27000  26933527.37200     71203.27600       678.09800        26.44800
E07  28745227.75800   -358888.64010     -4251.70200         7.00000  28745289.51400  -1273859.81310     -3160.98200         7.00000
E19  23358937.30900    -85896.06000      -980.00600        27.63800  23358940.60700    -81480.78200      -728.80700        27.00300
E21  23521303.40600    -54391.43200      -964.66100        32.97100  23521303.70200    -58998.29300      -720.34900        27.18700
E27  24928974.69500   -213683.14800     -3657.41100        34.85100  24928970.79500   -196221.47600     -2731.15400        30.90600
> 2018 12 17 07 30 05.9997560  0 21
G01  24849371.50000   -220898.82010     -1807.17400        25.94700  24849290.55800   -310760.33010     -1343.27600        17.92400
G10  21162886.59800   -516915.50310     -4068.18100        34.69500  21162882.10500   -720051.95810     -3038.27500        24.98000
G12  22047598.42900   -436825.35000     -3452.85200        37.19100         0.00000         0.00000         0.00000         0.00000
G14  21435938.77100     18415.97700       109.18400        37.21700         0.00000         0.00000         0.00000         0.00000
G20  23130196.95800   -664233.93100     -5284.01100        35.50600         0.00000         0.00000         0.00000         0.00000
G22  25202068.03300     32626.57000      1483.84200        28.88700         0.00000         0.00000         0.00000         0.00000
G25  20973099.98900   -161221.25500     -1334.31500        39.84800  20973101.48500   -220801.74900      -996.38800        36.70200
G31  21856367.41200     93167.45200       683.16100        24.90000         0.00000         0.00000         0.00000         0.00000
G32  20550072.44300    -98955.20900      -822.86200        36.43500  20550073.34100   -134635.65100      -614.44200        30.77400
R06  21557916.82700   -606795.79600     -5054.27400        26.81500
R09  19271501.38000   -315847.05600     -2581.10500        34.50100
R16  22897810.13600   -704659.51410     -5665.09500        26.16000
R07  19196231.89000   -208524.78800     -1729.09300        35.48000
R08  21098656.36400    206845.90500      1620.12800        29.22400
C04  39144634.59300    -47679.50800     -1600.41900        35.67200
C06  36009427.25400  -1542145.40000     -1549.43300        30.87400
E04  26933065.48600     83227.65700       906.23500        28.78400  26933066.68600     71881.09000       677.81400        26.59200
E07  28745751.29100   -363141.31810     -4251.71000         7.41200  28745811.55100  -1277030.55210     -3161.00200         7.00000
E19  23358836.07600    -86872.51800      -977.43700        27.63400  23358840.87100    -82210.19200      -729.41000        26.95900
E21  23521202.47400    -55357.00400      -965.57200        32.75300  23521202.17300    -59719.33300      -721.04100        27.17700
E27  24929387.30600   -217341.30400     -3658.15600        35.15700  24929381.01100   -198953.25100     -2731.77500        31.14200
> 2018 12 17 07 30 06.9997550  0 21
G01  24849421.96200   -222706.86510     -1808.19100        23.29400  24849348.81500   -312110.90710     -1348.12400        17.91400
G10  21163377.15800   -520984.43700     -4068.93300        35.07400  21163372.36000   -723090.51600     -3038.55800        25.34800
G12  22047971.46600   -440279.13600     -3453.78600        37.29300         0.00000         0.00000         0.00000         0.00000
G14  21435630.38200     18524.60800       108.63100        37.01100         0.00000         0.00000         0.00000         0.00000
G20  23130916.55700   -669518.44900     -5284.51800        35.52600         0.00000         0.00000         0.00000         0.00000
G22  25201498.22700     34109.80800      1483.23800        29.25200         0.00000         0.00000         0.00000         0.00000
G25  20973070.70300   -162556.64800     -1335.39300        39.89900  20973070.40600   -221798.95300      -997.20400        36.64800
G31  21855941.20800     93850.22100       682.77000        27.20900         0.00000         0.00000         0.00000         0.00000
G32  20549943.02800    -99778.73800      -823.53000        36.43300  20549944.22700   -135250.66700      -615.01500        30.76400
R06  21558565.67400   -611850.68800     -5054.89200        26.95200
R09  19271694.84200   -318429.17000     -2582.11400        34.54500
R16  22898597.19300   -710324.62100     -5665.10700        25.92800
R07  19196274.25900   -210254.97700     -1730.18900        35.46600
R08  21098054.78100    208465.40700      1619.50200        29.51600
C04  39144656.57600    -49280.79200     -1601.28400        35.55400
C06  36009436.94300  -1543695.19600     -1549.79600        30.85600
E04  26932601.80800     84134.85400       907.46900        29.11800  26932608.70100     72558.56000       677.47000        27.00100
E07  28746274.82800   -367394.77910     -4252.67800         7.00000  28746339.58100  -1280199.37210     -3170.73900         7.00000
E19  23358730.94700    -87847.31500      -975.50900        27.57900  23358743.23700    -82940.09800      -729.90600        26.71400
E21  23521100.04100    -56323.34600      -966.34300        32.91600  23521099.74000    -60440.94100      -721.60800        27.37300
E27  24929799.31800   -221000.06200     -3658.75800        35.02000  24929791.52300   -201685.41200     -2732.16100        31.11900
> 2018 12 17 07 30 07.9997540  0 21
G01  24849483.21700   -224515.94510     -1807.61100        22.21900  24849407.06800   -313461.67210     -1355.00000        18.19900
G10  21163865.32000   -525054.36200     -4069.92600        35.24400  21163860.22000   -726129.68300     -3039.16800        25.53600
G12  22048343.30800   -443734.03400     -3454.89800        37.76400         0.00000         0.00000         0.00000         0.00000
G14  21435326.19000     18632.71600       108.10800        37.06200         0.00000         0.00000         0.00000         0.00000
G20  23131636.45700   -674803.55600     -5285.10700        35.42500         0.00000         0.00000         0.00000         0.00000
G22  25200932.91400     35592.50300      1482.69500        29.25400         0.00000         0.00000         0.00000         0.00000
G25  20973040.52300   -163893.13400     -1336.48600        39.78700  20973037.82700   -222797.00100      -998.04800        36.79300
G31  21855513.19800     94531.73100       681.50900        29.24600         0.00000         0.00000         0.00000         0.00000
G32  20549815.11700   -100602.97500      -824.23600        36.33100  20549814.51500   -135866.14900      -615.48200        31.10600
R06  21559225.91600   -616906.48500     -5055.79700        26.96500
R09  19271901.49600   -321012.44900     -2583.27900        34.98000
R16  22899362.96100   -715990.20900     -5665.58800        25.83000
R07  19196319.32400   -211986.30000     -1731.32300        35.57700
R08  21097475.97900    210084.11700      1618.71000        29.77200
C04  39144677.66000    -50881.44600     -1600.65400        35.49200
C06  36009449.03200  -1545245.45300     -1550.25700        30.79700
E04  26932154.61500     85045.14300       907.18000        29.37300  26932149.81700     73235.75600       677.19500        26.80000
E07  28746798.36100   -371648.43210     -4252.68600         7.00000  28746856.52200  -1283370.34210     -3169.04300         7.00000
E19  23358633.31300    -88825.47900      -977.20900        27.59800  23358642.00400    -83670.47800      -730.38000        26.71000
E21  23520999.10900    -57290.50500      -967.15800        33.12700  23520998.21000    -61163.20700      -722.26600        27.19300
E27  24930212.83200   -224659.53600     -3659.47300        34.93700  24930201.43700   -204418.14500     -2732.73300        31.03100
> 2018 12 17 07 30 08.9997530  0 21
G01  24849476.29300   -226326.19410     -1810.24900        23.59900  24849395.35100   -314813.40810     -1355.53700        18.71400
G10  21164282.60200   -529125.12700     -4070.76400        35.20200  21164278.10400   -729169.56100     -3039.87800        25.28700
G12  22048643.67000   -447189.83900     -3455.80600        38.03900         0.00000         0.00000         0.00000         0.00000
G14  21434946.92200     18740.21300       107.49700        36.86700         0.00000         0.00000         0.00000         0.00000
G20  23132283.08400   -680089.19400     -5285.63800        35.16900         0.00000         0.00000         0.00000         0.00000
G22  25200292.83100     37074.56500      1482.06300        29.48500         0.00000         0.00000         0.00000         0.00000
G25  20972935.26700   -165230.67600     -1337.54200        39.83500  20972935.56800   -223795.84800      -998.84700        36.76100
G31  21855016.11500     95212.57100       680.84100        31.37400         0.00000         0.00000         0.00000         0.00000
G32  20549612.42900   -101427.92700      -824.95300        36.34900  20549614.22600   -136482.17300      -616.02400        30.92100
R06  21559805.98700   -621963.13700     -5056.65200        27.71500
R09  19272025.28800   -323596.69300     -2584.24300        35.12700
R16  22900072.84000   -721656.28000     -5666.07200        25.99400
R07  19196270.72600   -213718.70300     -1732.40300        35.53500
R08  21096813.41200    211702.25900      1618.14200        29.92900
C04  39144627.56500    -52483.47600     -1602.03000        35.67400
C06  36009386.94900  -1546796.09700     -1550.64400        30.95700
E04  26931616.45900     85951.56000       906.79900        29.81400  26931619.15500     73912.55500       676.79900        26.83300
E07  28747251.62100   -375902.86810     -4253.65400         7.00000  28747312.47900  -1286547.57910     -3165.11700         7.00000
E19  23358467.20000    -89800.70800      -978.17700        27.40200  23358471.09600    -84401.44200      -730.96300        26.61800
E21  23520825.20000    -58258.50200      -967.99700        33.02100  23520824.89900    -61886.07300      -722.86500        27.40000
E27  24930553.66500   -228319.59700     -3660.06100        34.75400  24930540.47700   -207151.31800     -2733.17300        30.96500
> 2018 12 17 07 30 09.9997520  0 21
G01  24849530.05300   -228137.18610     -1810.99200        24.57500  24849455.70600   -316165.55210     -1350.17200        18.12700
G10  21164771.06000   -533196.72500     -4071.59800        35.03400  21164767.46500   -732209.99700     -3040.43600        25.56900
G12  22049016.41100   -450646.57600     -3456.73700        38.17800         0.00000         0.00000         0.00000         0.00000
G14  21434640.03400     18847.26300       107.04900        37.10000         0.00000         0.00000         0.00000         0.00000
G20  23133001.78400   -685375.27200     -5286.07700        35.13200         0.00000         0.00000         0.00000         0.00000
G22  25199732.31300     38556.06900      1481.50400        29.85000         0.00000         0.00000         0.00000         0.00000
G25  20972902.98900   -166569.33000     -1338.65500        39.61600  20972904.18800   -224795.42500      -999.57800        36.79600
G31  21854596.80400     95892.74400       680.17300        33.75900         0.00000         0.00000         0.00000         0.00000
G32  20549482.71700   -102253.52000      -825.59200        36.31200  20549486.01500   -137098.69400      -616.52000        30.83900
R06  21560472.52500   -627020.52700     -5057.38900        27.31100
R09  19272219.94500   -326181.98500     -2585.29300        34.97700
R16  22900840.70700   -727322.79110     -5666.97700        25.83100
R07  19196307.99900   -215452.13500     -1733.43200        35.27000
R08  21096227.11100    213319.62600      1617.36700        30.35500
C04  39144649.54800    -54084.78600     -1601.31000        35.67000
C06  36009400.83900  -1548347.12900     -1551.03200        31.10300
E04  26931170.76300     86858.62200       906.98900        29.68600  26931162.07300     74589.23800       676.68300        26.72400
E07  28747775.15400   -380157.49810     -4253.66100         7.00000  28747834.51500  -1289718.25210     -3143.96600         7.00000
E19  23358368.06600    -90780.05800      -979.92200        27.60400  23358370.76200    -85132.71500      -731.27300        27.06600
E21  23520726.36600    -59227.22200      -968.72000        33.50500  23520723.36900    -62609.44100      -723.36900        27.23000
E27  24930964.47800   -231980.26500     -3660.66800        34.54300  24930951.58700   -209884.93800     -2733.62000        30.85100
> 2018 12 17 07 30 10.9997510  0 21
G01  24849574.22400   -229949.25610     -1813.15600        24.05900  24849511.26400   -317518.77410     -1356.51900        18.75800
G10  21165258.61900   -537269.32600     -4072.60100        34.95500  21165254.42200   -735251.24400     -3041.24700        25.49500
G12  22049387.65200   -454104.48500     -3457.90900        38.32800         0.00000         0.00000         0.00000         0.00000
G14  21434330.74600     18953.63900       106.37600        37.02100         0.00000         0.00000         0.00000         0.00000
G20  23133725.58000   -690662.01100     -5286.73900        34.94100         0.00000         0.00000         0.00000         0.00000
G22  25199170.00200     40036.89800      1480.82900        29.98800         0.00000         0.00000         0.00000         0.00000
G25  20972871.00700   -167909.15700     -1339.82700        39.39000  20972873.10500   -225795.97500     -1000.55000        36.90900
G31  21854178.98900     96572.03900       679.29500        35.45700         0.00000         0.00000         0.00000         0.00000
G32  20549359.30000   -103079.91800      -826.39800        36.27200  20549357.49900   -137715.76800      -617.07500        30.79300
R06  21561135.46300   -632078.75610     -5058.70800        27.62800
R09  19272426.90500   -328768.48200     -2586.49700        35.05200
R16  22901628.06000   -732989.80410     -5669.52500        25.99200
R07  19196353.37000   -217186.82100     -1734.68600        35.49900
R08  21095654.60800    214936.26800      1616.64200        30.55900
C04  39144671.23400    -55687.07400     -1602.28800        35.68800
C06  36009413.22400  -1549898.68200     -1551.55300        31.18200
E04  26930704.08800     87764.25200       907.05000        30.02800  26930702.58700     75265.45200       676.21400        26.66400
E07  28748299.59000   -384412.90910     -4254.62900         7.33100  28748361.64700  -1292884.46610     -3170.73900         7.00000
E19  23358266.53200    -91757.51400      -979.33500        27.29300  23358270.72800    -85864.57200      -731.85700        26.66300
E21  23520626.03200    -60196.85300      -969.63100        33.65100  23520621.83500    -63333.48500      -724.04300        27.44500
E27  24931373.79500   -235641.66500     -3661.40000        34.87300  24931362.10300   -212619.08600     -2734.14800        30.96700
> 2018 12 17 07 30 11.9997500  0 21
G01         0.00000   -231765.33710     -1814.92200        21.88200  24849501.94500   -318872.46110     -1352.77600        19.70100
G10  21165676.50400   -541342.52310     -4073.19700        34.76300  21165673.80300   -738292.85110     -3041.31500        25.40900
G12  22049690.41300   -457563.09200     -3458.60700        38.36900         0.00000         0.00000         0.00000         0.00000
G14  21433958.07500     19059.66200       106.02300        36.91600         0.00000         0.00000         0.00000         0.00000
G20  23134371.00700   -695949.08500     -5287.07500        35.07500         0.00000         0.00000         0.00000         0.00000
G22  25198535.91300     41517.38700      1480.48800        30.12900         0.00000         0.00000         0.00000         0.00000
G25  20972767.85000   -169249.81500     -1340.65800        39.27200  20972770.85100   -226797.09600     -1001.12100        36.82000
G31  21853688.50300     97250.85700       678.81800        36.32700         0.00000         0.00000         0.00000         0.00000
G32  20549156.01400   -103906.77500      -826.85700        36.43300  20549156.91300   -138333.25600      -617.48800        30.83500
R06  21561739.21400   -637137.54900     -5058.79300        27.86000
R09  19272548.89000   -331355.78400     -2587.30100        35.30700
R16  22902350.53000   -738657.06300     -5667.26000        25.93700
R07  19196323.36000   -218922.32000     -1735.49900        35.85300
R08  21094989.63700    216552.44000      1616.17100        30.57600
C04  39144621.73700    -57289.50300     -1602.43000        35.71800
C06  36009353.23900  -1551450.36100     -1551.67900        31.29500
E04  26930181.21800     88670.68000       905.19000        29.85600  26930173.12600     75941.59500       676.14300        26.81000
E07  28748752.24800   -388668.51410     -4254.63700         7.00000  28748812.50800  -1296053.37210     -3170.73900         7.00000
E19  23358099.52000    -92738.19500      -980.50900        27.66900  23358103.11900    -86596.79400      -732.22300        26.53000
E21  23520453.02600    -61167.08800      -970.23500        33.59300  23520450.62700    -64058.01400      -724.53000        27.30800
E27  24931714.62800   -239303.49300     -3661.82800        34.96500  24931701.73700   -215353.56300     -2734.47700        30.95700
> 2018 12 17 07 30 12.9997490  0 21
G01  24849605.77000   -233582.95210     -1812.81800        22.78200  24849560.20300   -320226.65410     -1350.16400        18.91300
G10  21166164.96200   -545416.42000     -4073.89700        34.85100  21166163.76200   -741335.13300     -3042.28200        25.25000
G12  22050062.55200   -461022.52300     -3459.43100        38.40400         0.00000         0.00000         0.00000         0.00000
G14  21433647.88900     19165.37200       105.71000        36.62800         0.00000         0.00000         0.00000         0.00000
G20  23135094.20100   -701236.41600     -5287.33100        34.94900         0.00000         0.00000         0.00000         0.00000
G22  25197973.30100     42997.46600      1480.07900        30.22600         0.00000         0.00000         0.00000         0.00000
G25  20972738.56800   -170591.31200     -1341.49700        39.18000  20972740.96800   -227798.88100     -1001.78500        36.84100
G31  21853272.78600     97929.19300       678.33600        36.97900         0.00000         0.00000         0.00000         0.00000
G32  20549032.89400   -104734.11400      -827.33900        36.53900  20549028.69700   -138951.06300      -617.80700        31.07300
R06  21562414.14500   -642197.01800     -5059.46900        27.86600
R09  19272748.65200   -333943.96000     -2588.17600        35.11900
R16  22903124.39000   -744324.57110     -5665.18800        25.59400
R07  19196364.23300   -220658.69500     -1736.37500        35.78900
R08  21094409.94100    218168.11300      1615.67300        30.05600
C04  39144643.12200    -58892.07800     -1602.57400        35.73300
C06  36009366.23100  -1553002.29700     -1551.93600        31.37200
E04  26929714.83900     89575.87600       906.08200        30.04200  26929715.44100     76617.58100       675.98600        26.78000
E07  28749277.28200   -392923.92910     -4255.60500         7.87000  28749340.53900  -1299218.20110     -3170.62400         7.00000
E19  23358002.18700    -93715.90900      -981.27100        27.37400  23358001.88600    -87329.28700      -732.49200        27.08400
E21  23520349.99600    -62137.80300      -970.71400        33.58900  23520346.99800    -64782.92000      -724.90500        27.23700
E27  24932123.04600   -242965.71200     -3662.21900        34.71300  24932112.55000   -218088.34700     -2734.78500        30.76000
> 2018 12 17 07 30 13.9997480  0 21
G01  24849678.71600   -235397.20710     -1814.54200        27.09400  24849618.15900   -321581.51010     -1349.60200        18.49700
G10  21166656.12000   -549491.02700     -4074.60700        35.21600  21166651.92300   -744377.90300     -3042.77000        25.41300
G12  22050435.89500   -464482.78400     -3460.26100        38.81300         0.00000         0.00000         0.00000         0.00000
G14  21433344.59500     19270.63800       105.26600        36.71700         0.00000         0.00000         0.00000         0.00000
G20  23135812.60400   -706524.20700     -5287.79200        34.84800         0.00000         0.00000         0.00000         0.00000
G22  25197404.09200     44477.12100      1479.65500        29.94800         0.00000         0.00000         0.00000         0.00000
G25  20972706.29000   -171933.90100     -1342.59000        39.17800  20972709.88900   -228801.45800     -1002.57700        36.74500
G31  21852857.07400     98606.87500       677.68200        37.64500         0.00000         0.00000         0.00000         0.00000
G32  20548901.38500   -105562.08600      -827.97200        36.61600  20548900.48600   -139569.35400      -618.29000        31.07300
R06  21563071.68700   -647257.06900     -5060.05100        28.06600
R09  19272944.51300   -336533.10400     -2589.14400        34.93000
R16  22903892.26100   -749992.37100     -5667.80000        25.47100
R07  19196407.79700   -222396.07700     -1737.38200        35.48000
R08  21093816.45000    219783.25400      1615.14200        30.20700
C04  39144665.40600    -60494.89700     -1602.81900        35.67900
C06  36009378.61600  -1554554.49700     -1552.20000        31.37100
E04  26929264.34900     90480.84100       903.83400        30.18700  26929258.65600     77293.35300       675.77200        27.06200
E07  28749801.41700   -397179.53410     -4255.60500         7.32600  28749862.57500  -1302389.03010     -3200.63600         7.00000
E19  23357900.05500    -94697.16800      -980.57000        27.81000  23357903.05200    -88062.26000      -732.97300        27.13100
E21  23520249.96200    -63109.24200      -971.44000        33.56400  23520247.86400    -65508.39800      -725.47800        27.12800
E27  24932536.25400   -246628.51400     -3662.80200        34.38400  24932523.06600   -220823.53800     -2735.19100        30.67700
> 2018 12 17 07 30 14.9997470  0 21
G01  24849594.62300   -237212.37510     -1815.67000        28.66600  24849536.76300   -322936.89410     -1349.52900        18.26200
G10  21167003.12600   -553566.34510     -4075.31800        35.53800  21167000.72700   -747421.11510     -3043.52200        25.11900
G12  22050664.18300   -467943.82300     -3461.03900        38.75600         0.00000         0.00000         0.00000         0.00000
G14  21432895.65400     19375.60800       104.97000        36.70300         0.00000         0.00000         0.00000         0.00000
G20  23136388.95000   -711812.28500     -5288.07700        35.11000         0.00000         0.00000         0.00000         0.00000
G22  25196698.82800     45956.38900      1479.26800        29.94100         0.00000         0.00000         0.00000         0.00000
G25  20972532.85700   -173277.22700     -1343.32600        38.96700  20972537.05300   -229804.62100     -1003.16300        36.47300
G31  21852303.50500     99284.14000       677.26500        38.01400         0.00000         0.00000         0.00000         0.00000
G32  20548629.91600   -106390.52300      -828.43700        36.77800  20548629.01700   -140187.94700      -618.59300        31.14900
R06  21563589.27800   -652317.66300     -5060.59300        27.44000
R09  19272983.93300   -339123.01100     -2589.90800        34.59400
R16  22904534.26300   -755660.39410     -5667.08300        25.11400
R07  19196282.03300   -224134.40100     -1738.32400        35.05000
R08  21093092.89500    221397.82600      1614.57100        30.29800
C04  39144544.13600    -62097.87800     -1602.98100        35.76600
C06  36009250.15200  -1556106.87800     -1552.38200        31.35800
E04  26928663.41100     91385.06200       904.57300        29.79200  26928656.51900     77968.97800       675.62500        27.15500
E07  28750182.59900   -401436.11110     -4255.60500         7.00000  28750251.85500  -1305565.65810     -3170.73900         7.00000
E19  23357655.87000    -95674.54300      -979.03000        27.81400  23357659.76600    -88795.49200      -733.23200        26.93800
E21  23520006.97700    -64081.28000      -972.03800        33.79500  23520003.08100    -66234.19300      -725.79500        26.97100
E27  24932800.21900   -250291.66700     -3663.15300        34.72000  24932791.52500   -223559.02000     -2735.48100        30.90200
> 2018 12 17 07 30 15.9997460  0 20
G10  21167493.38600   -557642.59900     -4076.25300        35.59800  21167488.29000   -750465.05600     -3043.94100        25.36400
G12  22051033.92300   -471405.93200     -3462.10900        38.89900         0.00000         0.00000         0.00000         0.00000
G14  21432588.76500     19479.92700       104.31900        36.70300         0.00000         0.00000         0.00000         0.00000
G20  23137108.54900   -717100.94400     -5288.65900        35.12600         0.00000         0.00000         0.00000         0.00000
G22  25196129.92100     47435.04000      1478.65000        29.53300         0.00000         0.00000         0.00000         0.00000
G25  20972501.77300   -174621.78900     -1344.56100        38.96800  20972507.17000   -230808.70300     -1004.08200        36.69500
G31  21851887.19100     99960.56500       676.42500        38.27600         0.00000         0.00000         0.00000         0.00000
G32  20548503.80300   -107219.66200      -829.14000        36.87100  20548501.10300   -140807.17600      -619.22900        31.36600
R06  21564245.62400   -657379.21910     -5061.81400        26.90900
R09  19273195.08100   -341714.12200     -2591.11100        34.61000
R16  22905291.33200   -761329.04400     -5668.65000        24.70700
R07  19196313.60900   -225873.76500     -1739.36400        34.96800
R08  21092507.50100    223011.76300      1613.93800        30.54200
C04  39144565.81800    -63701.22600     -1603.34800        35.75700
C06  36009263.14400  -1557659.79800     -1552.91900        31.26300
E04  26928207.22800     92288.47300       903.87200        30.06800  26928198.83400     78644.23900       675.26100        26.64000
E07  28750706.73800   -405692.69210     -4255.61300         7.00000  28750770.89000  -1308736.39710     -3170.73900         8.00300
E19  23357557.63400    -96657.21400      -982.98600        27.66800  23357562.73400    -89529.28000      -733.78800        27.19900
E21  23519901.24600    -65054.19800      -972.91800        33.76400  23519901.84800    -66960.77100      -726.57800        27.50000
E27  24933206.53500   -253955.52200     -3663.85500        34.91200  24933202.94000   -226295.03800     -2736.01800        31.04500
> 2018 12 17 07 30 16.9997450  0 20
G10  21167984.24300   -561719.54800     -4076.94900        35.70900  21167978.24900   -753509.55100     -3044.49500        25.15100
G12  22051410.55900   -474868.91100     -3462.97900        38.95600         0.00000         0.00000         0.00000         0.00000
G14  21432282.17400     19583.80800       103.88100        36.39000         0.00000         0.00000         0.00000         0.00000
G20  23137831.14500   -722390.04300     -5289.09900        35.05400         0.00000         0.00000         0.00000         0.00000
G22  25195565.20500     48913.15300      1478.11300        29.47000         0.00000         0.00000         0.00000         0.00000
G25  20972476.09100   -175967.31900     -1345.53000        39.01300  20972477.29100   -231813.46100     -1004.75800        36.72400
G31  21851471.17300    100636.41400       675.84900        38.42100         0.00000         0.00000         0.00000         0.00000
G32  20548374.09200   -108049.43900      -829.77600        36.77500  20548374.68900   -141426.81600      -619.64000        31.33800
R06  21564904.66200   -662441.46100     -5062.24200        27.08600
R09  19273378.65300   -344306.15100     -2592.02900        34.53100
R16  22906065.79900   -766998.05800     -5669.01400        24.54100
R07  19196361.07400   -227614.24200     -1740.47700        34.99800
R08  21091930.79700    224625.02200      1613.25800        30.58200
C04  39144587.50000    -65304.89000     -1603.66400        35.69600
C06  36009274.93100  -1559212.95400     -1553.15600        31.28200
E04  26927755.53800     93192.39300       904.04700        29.76000  26927739.94600     79319.39200       675.15300        27.20800
E07  28751230.87300   -409950.05510     -4256.58100         7.00000  28751298.92400  -1311907.12510     -3170.73900         9.97200
E19  23357462.99700    -97638.71300      -983.03200        27.62400  23357462.39900    -90263.48500      -734.20600        26.78900
E21  23519803.91300    -66027.78100      -973.58300        34.10300  23519801.81400    -67687.79800      -727.02700        27.25000
E27  24933618.84800   -257619.93800     -3664.41600        34.78500  24933614.05400   -229031.44900     -2736.41100        30.86600
> 2018 12 17 07 30 17.9997440  0 20
G10  21168472.10300   -565797.54200     -4077.99400        35.43900  21168468.20700   -756554.81000     -3045.25900        25.39600
G12  22051783.60100   -478332.93400     -3464.02300        39.08200         0.00000         0.00000         0.00000         0.00000
G14  21431977.08300     19687.07600       103.26800        36.47700         0.00000         0.00000         0.00000         0.00000
G20  23138550.44800   -727679.72200     -5289.67900        34.83000         0.00000         0.00000         0.00000         0.00000
G22  25194996.29800     50390.66800      1477.51600        29.06000         0.00000         0.00000         0.00000         0.00000
G25  20972443.51100   -177314.06000     -1346.74100        39.17800  20972447.40700   -232819.12200     -1005.66100        36.86800
G31  21851056.05900    101311.43200       675.01800        38.46400         0.00000         0.00000         0.00000         0.00000
G32  20548243.77800   -108879.98300      -830.54400        36.70400  20548245.27800   -142047.01200      -620.19600        31.51500
R06  21565565.80300   -667504.45900     -5062.99800        27.41400
R09  19273591.90300   -346899.34600     -2593.19600        34.61400
R16  22906851.65200   -772667.41710     -5670.07000        24.11800
R07  19196411.83700   -229355.76500     -1741.52400        35.04100
R08  21091349.59600    226237.60700      1612.58500        30.82400
C04  39144609.78400    -66908.94400     -1604.05400        35.66900
C06  36009286.72300  -1560766.59800     -1553.64500        31.28700
E04  26927279.56500     94096.01300       903.07900        29.28400  26927280.76500     79994.07500       674.68400        27.10700
E07  28751755.00800   -414207.61110     -4256.58800         7.48500  28751814.96200  -1315080.43610     -3171.74900        10.63000
E19  23357362.96400    -98619.64700      -981.69000        27.55100  23357363.26500    -90998.27900      -734.79300        26.76300
E21  23519700.58100    -67002.23000      -974.44900        33.79200  23519700.88200    -68415.40600      -727.60800        27.43500
E27  24934023.66700   -261285.03100     -3665.09300        34.73400  24934025.76600   -231768.34900     -2736.89900        30.95500
> 2018 12 17 07 30 18.9997430  0 20
G10  21168893.28600   -569876.12800     -4078.58600        35.23400  21168888.78800   -759600.48400     -3045.67400        25.79000
G12  22052086.96000   -481797.74400     -3464.81000        39.22500         0.00000         0.00000         0.00000         0.00000
G14  21431598.11700     19790.01200       102.93500        36.31300         0.00000         0.00000         0.00000         0.00000
G20  23139200.97000   -732969.71300     -5289.99100        35.04500         0.00000         0.00000         0.00000         0.00000
G22  25194355.91400     51867.80600      1477.13700        28.73300         0.00000         0.00000         0.00000         0.00000
G25  20972345.75100   -178661.61200     -1347.55300        39.34200  20972346.05200   -233825.43200     -1006.31000        36.84000
G31  21850572.76600    101985.99900       674.56800        38.37500         0.00000         0.00000         0.00000         0.00000
G32  20548046.18900   -109711.02900      -831.04600        36.59400  20548046.18900   -142667.57000      -620.55800        31.29400
R06  21566156.06500   -672568.18700     -5063.72800        27.48900
R09  19273714.19000   -349493.33900     -2593.99300        34.45300
R16  22907510.56400   -778337.14610     -5665.09700        23.21700
R07  19196373.43300   -231098.27300     -1742.50700        34.69000
R08  21090689.12700    227849.69400      1612.08700        30.84800
C04  39144559.98900    -68513.15700     -1604.21400        35.72000
C06  36009227.93400  -1562320.43200     -1553.83400        31.34000
E04  26926770.78700     94999.31200       905.16000        29.91200  26926753.40200     80668.68800       674.61200        26.66000
E07  28752208.56500   -418465.94910     -4257.55600         7.00000  28752270.62200  -1318248.57810     -3172.56800         8.12100
E19  23357191.45900    -99606.13400      -987.13200        27.58600  23357193.55700    -91733.33200      -735.05300        26.48300
E21  23519527.57500    -67977.29200      -975.06200        33.59000  23519529.67400    -69143.59400      -728.18800        27.19100
E27  24934363.30500   -264950.57900     -3665.54800        34.83700  24934365.70000   -234505.61900     -2737.27000        30.80600
> 2018 12 17 07 30 19.9997420  0 20
G10  21169382.34100   -573955.53500     -4079.40700        35.05400  21169377.54700   -762646.78100     -3046.29600        25.67500
G12  22052458.50200   -485263.46100     -3465.71700        39.28600         0.00000         0.00000         0.00000         0.00000
G14  21431292.72500     19892.46700       102.45500        36.22000         0.00000         0.00000         0.00000         0.00000
G20  23139924.76600   -738260.17700     -5290.46500        35.07400         0.00000         0.00000         0.00000         0.00000
G22  25193784.00900     53344.43300      1476.62800        28.44300         0.00000         0.00000         0.00000         0.00000
G25  20972317.36800   -180010.16300     -1348.55000        39.51600  20972317.66900   -234832.47300     -1007.04100        36.85700
G31  21850160.05100    102659.89000       673.89000        38.14300         0.00000         0.00000         0.00000         0.00000
G32  20547918.27400   -110542.68200      -831.65300        36.56200  20547920.07200   -143288.63400      -621.06400        31.30700
R06  21566834.89600   -677632.63300     -5064.44600        27.33800
R09  19273923.54000   -352088.25600     -2594.91700        34.58900
R16  22908276.63300   -784000.93310     -5667.93400        22.54400
R07  19196400.51200   -232841.76500     -1743.49200        34.37200
R08  21090096.23400    229461.21700      1611.52300        30.98500
C04  39144582.57000    -70117.63200     -1604.47400        35.73400
C06  36009240.02200  -1563874.60300     -1554.17000        31.28800
E04  26926295.11600     95902.34400       901.92800        29.84000  26926295.11600     81343.07100       674.38300        26.80000
E07  28752733.00100   -422724.48110     -4257.56400         7.00000  28752792.95500  -1321419.32510     -3175.08300         7.00000
E19  23357097.41900   -100591.10200      -984.14500        27.90600  23357096.82200    -92468.77500      -735.44300        26.76400
E21  23519427.24100    -68953.01900      -975.72800        33.42100  23519429.64100    -69872.23900      -728.64500        27.47100
E27  24934769.92100   -268616.65800     -3666.07900        34.73500  24934777.71300   -237243.30300     -2737.68400        30.73100
> 2018 12 17 07 30 20.9997410  0 20
G10  21169873.80000   -578035.86200     -4080.32700        35.09600  21169868.70500   -765693.72800     -3046.94700        25.61200
G12  22052833.34100   -488730.28400     -3466.82400        39.46700         0.00000         0.00000         0.00000         0.00000
G14  21430989.43600     19994.29700       101.83000        36.35600         0.00000         0.00000         0.00000         0.00000
G20  23140643.76700   -743551.23700     -5291.05900        35.09200         0.00000         0.00000         0.00000         0.00000
G22  25193207.90300     54820.32700      1475.89300        28.09100         0.00000         0.00000         0.00000         0.00000
G25  20972288.98500   -181359.98300     -1349.82100        39.80300  20972288.68400   -235840.41500     -1007.94200        36.85100
G31  21849750.63000    103333.04800       673.15900        37.84800         0.00000         0.00000         0.00000         0.00000
G32  20547788.85900   -111375.09500      -832.41300        36.71000  20547790.36000   -143910.20500      -621.57100        31.54400
R06  21567488.53700   -682697.97100     -5065.33800        27.54400
R09  19274120.90200   -354684.40500     -2596.14800        34.58900
R16  22909029.81000   -789668.37110     -5670.09400        22.35900
R07  19196448.27300   -234586.42100     -1744.65600        34.25000
R08  21089517.43200    231071.88600      1610.66900        30.44200
C04  39144605.15500    -71722.56500     -1604.93300        35.67200
C06  36009252.11100  -1565429.30500     -1554.70200        31.30900
E04  26925853.01900     96804.98300       902.58400        30.34900  26925838.92800     82017.05800       673.98700        27.04200
E07  28753258.93300   -426983.79510     -4258.53200         7.00000  28753320.38800  -1324590.92010     -3170.73900         7.00000
E19  23356998.58600   -101573.64600      -983.16100        28.22400  23356996.18600    -93204.80600      -736.03100        26.61700
E21  23519327.20800    -69929.63100      -976.61200        33.17200  23519329.90400    -70601.51800      -729.27900        27.10400
E27  24935181.03100   -272283.43900     -3666.78100        34.82800  24935189.42900   -239981.50700     -2738.20500        31.08800
> 2018 12 17 07 30 21.9997400  0 20
G10  21170294.38100   -582117.00100     -4081.13900        35.52200  21170287.78500   -768741.34800     -3047.62000        25.87400
G12  22053136.40300   -492197.91600     -3467.63200        39.66600         0.00000         0.00000         0.00000         0.00000
G14  21430609.86700     20095.65400       101.35700        36.45800         0.00000         0.00000         0.00000         0.00000
G20  23141293.68700   -748842.72900     -5291.49200        34.82300         0.00000         0.00000         0.00000         0.00000
G22  25192559.42700     56295.81800      1475.49100        28.05900         0.00000         0.00000         0.00000         0.00000
G25  20972187.02800   -182710.64400     -1350.66000        39.66100  20972188.22800   -236849.09500     -1008.67900        36.93800
G31  21849266.13800    104005.54400       672.49600        37.53800         0.00000         0.00000         0.00000         0.00000
G32  20547590.37200   -112208.10800      -833.01300        36.51300  20547593.36900   -144532.30100      -622.09600        31.46500
R06  21568079.40200   -687764.00000     -5066.03000        27.66700
R09  19274255.78400   -357281.58200     -2597.17700        34.51700
R16  22909716.30600   -795341.28810     -5670.85900        22.31900
R07  19196400.87800   -236332.02900     -1745.60900        34.31900
R08  21088850.96500    232682.02500      1610.13900        30.41300
C04  39144556.56000    -73327.75700     -1605.19200        35.68800
C06  36009192.42700  -1566984.26600     -1554.96200        31.35200
E04  26925321.76000     97707.80800       901.70700        30.57400  26925307.97000     82690.85900       673.80100        27.15800
E07  28753712.18900   -431243.30210     -4258.53900         7.00000  28753771.25000  -1327761.65810     -3170.73900         7.00000
E19  23356824.67700   -102559.99300      -986.14200        27.83800  23356825.27900    -93941.32800      -736.52200        26.39400
E21  23519157.49600    -70906.94810      -977.31700        33.25800  23519157.79700    -71331.32310      -730.34600        27.37700
E27  24935514.67500   -275950.79000     -3667.35100        34.60500  24935529.96100   -242720.06300     -2738.55600        30.75700
> 2018 12 17 07 30 22.9997390  0 20
G10  21170787.63800   -586198.80900     -4081.80800        36.04700  21170777.74300   -771789.44400     -3048.09600        26.42200
G12  22053510.94200   -495666.46200     -3468.54600        39.66900         0.00000         0.00000         0.00000         0.00000
G14  21430307.17600     20196.64400       100.98900        36.37400         0.00000         0.00000         0.00000         0.00000
G20  23142015.68600   -754134.58200     -5291.85400        34.69300         0.00000         0.00000         0.00000         0.00000
G22  25191983.62200     57770.87800      1475.06000        28.02100         0.00000         0.00000         0.00000         0.00000
G25  20972157.74700   -184062.34000     -1351.69600        39.73400  20972159.54400   -237858.44900     -1009.35400        36.96500
G31  21848855.52100    104677.52700       671.98200        37.14800         0.00000         0.00000         0.00000         0.00000
G32  20547463.95400   -113041.66500      -833.55700        36.66900  20547464.85700   -145154.74400      -622.44200        31.41800
R06  21568746.83800   -692830.68000     -5066.67900        27.98000
R09  19274459.44100   -359879.56000     -2597.97800        34.65400
R16  22910501.86300   -801012.39810     -5676.32300        22.13000
R07  19196459.13600   -238078.67600     -1746.64600        34.35100
R08  21088254.17600    234291.61200      1609.58700        30.28300
C04  39144579.44200    -74933.11900     -1605.36200        35.47100
C06  36009206.61400  -1568539.42800     -1555.16200        31.43000
E04  26924862.27400     98609.86300       903.08700        30.66300  26924851.78200     83364.51500       673.65500        27.48500
E07  28754236.62500   -435502.61910     -4259.50700         7.05100  28754298.38100  -1330932.39710     -3170.73900         7.00000
E19  23356729.44200   -103544.55200      -985.19600        28.19200  23356729.74300    -94678.12400      -736.79600        26.42300
E21  23519056.86500    -71884.87600      -977.92800        33.41300  23519057.76300    -72061.60700      -730.28400        27.49500
E27  24935929.08300   -279618.57400     -3667.78500        34.64400  24935942.27500   -245458.92500     -2738.86100        30.76700
> 2018 12 17 07 30 23.9997380  0 20
G10  21171278.19400   -590281.38200     -4082.57300        36.23800  21171269.50400   -774838.17200     -3048.72700        26.33400
G12  22053884.87800   -499135.84300     -3469.38100        39.60200         0.00000         0.00000         0.00000         0.00000
G14  21430002.38600     20297.17800       100.53500        36.52200         0.00000         0.00000         0.00000         0.00000
G20  23142732.88500   -759426.87400     -5292.29100        34.37000         0.00000         0.00000         0.00000         0.00000
G22  25191414.41400     59245.41100      1474.53300        28.10300         0.00000         0.00000         0.00000         0.00000
G25  20972132.06000   -185415.01100     -1352.67100        39.86200  20972130.86500   -238868.54900     -1010.10000        36.80500
G31  21848447.00300    105348.83900       671.31200        36.76600         0.00000         0.00000         0.00000         0.00000
G32  20547340.53700   -113875.85100      -834.18600        36.68800  20547338.14200   -145777.71500      -622.97200        31.32700
R06  21569413.07400   -697898.04110     -5067.91400        28.02700
R09  19274657.10400   -362478.51700     -2598.95800        34.56000
R16  22911279.61900   -806684.04910     -5669.06700        21.89300
R07  19196485.01900   -239826.24200     -1747.56600        34.16700
R08  21087660.08300    235900.61000      1608.99800        29.97400
C04  39144602.02300    -76538.79100     -1605.67200        35.59500
C06  36009219.90200  -1570095.05500     -1555.62700        31.32900
E04  26924406.68800     99512.64200       901.89800        31.01600  26924393.49600     84037.87100       673.35600        27.02800
E07  28754761.36200   -439762.12710     -4259.50700         7.00000  28754820.41800  -1334103.13610     -3170.73900         7.00000
E19  23356629.40900   -104531.47300      -986.75900        28.38900  23356631.20600    -95415.42800      -737.30400        26.83800
E21  23518954.13500    -72863.58500      -978.70900        33.25000  23518956.83100    -72792.41000      -730.80300        27.27500
E27  24936337.20000   -283286.92300     -3668.34900        34.74200  24936353.98700   -248198.39200     -2739.46800        30.89500
> 2018 12 17 07 30 24.9997370  0 20
G10  21171697.27800   -594364.74600     -4083.36400        36.27100  21171690.38100   -777887.41800     -3049.24700        26.18800
G12  22054186.74500   -502606.10600     -3470.26300        39.46300         0.00000         0.00000         0.00000         0.00000
G14  21429626.71700     20397.26500       100.08700        36.54700         0.00000         0.00000         0.00000         0.00000
G20  23143384.30600   -764719.57500     -5292.70200        34.28100         0.00000         0.00000         0.00000         0.00000
G22  25190774.03000     60719.50100      1474.08900        28.33200         0.00000         0.00000         0.00000         0.00000
G25  20972031.00600   -186768.61100     -1353.60100        39.96000  20972031.60300   -239879.38200     -1010.83300        36.92100
G31  21847966.10500    106019.58600       670.74700        35.93500         0.00000         0.00000         0.00000         0.00000
G32  20547141.44700   -114710.59200      -834.74000        36.91000  20547140.85000   -146401.02500      -623.30900        31.33200
R06  21570012.63300   -702966.07300     -5068.03200        28.13400
R09  19274776.39300   -365078.43400     -2599.91600        34.61600
R16  22911987.10300   -812355.97610     -5668.62700        21.80200
R07  19196462.20700   -241574.82800     -1748.58700        33.95500
R08  21086991.81900    237509.03300      1608.42300        29.84000
C04  39144552.52900    -78144.66600     -1605.87500        35.69700
C06  36009160.51500  -1571650.88800     -1555.83300        31.33500
E04  26923874.82700    100414.12200       901.32600        31.38000  26923863.73800     84711.09400       673.22300        27.11100
E07  28755214.61800   -444023.58010     -4259.50700         7.00000  28755263.48300  -1337273.86610     -3170.73900         7.00000
E19  23356460.29900   -105517.70600      -986.78200        28.28300  23356461.79500    -96153.01400      -737.58500        26.48200
E21  23518782.02400    -73842.92800      -979.34300        33.08500  23518787.42000    -73523.77100      -731.36100        27.44100
E27  24936679.23700   -286955.80100     -3668.87800        34.75100  24936694.82400   -250938.07400     -2739.68100        30.78500
> 2018 12 17 07 30 25.9997360  0 20
G10  21172187.23700   -598448.80600     -4084.05900        36.04100  21172179.14000   -780937.20600     -3049.78800        26.19900
G12  22054562.18200   -506077.17200     -3471.06600        39.38000         0.00000         0.00000         0.00000         0.00000
G14  21429318.92600     20497.02800        99.76300        36.48000         0.00000         0.00000         0.00000         0.00000
G20  23144106.00400   -770012.58600     -5293.01000        34.18400         0.00000         0.00000         0.00000         0.00000
G22  25190208.11900     62193.13500      1473.63500        28.62500         0.00000         0.00000         0.00000         0.00000
G25  20972002.62300   -188123.16900     -1354.55800        40.07200  20972002.92000   -240890.86700     -1011.48400        36.82900
G31  21847560.58400    106689.81200       670.22600        34.92000         0.00000         0.00000         0.00000         0.00000
G32  20547014.13500   -115545.80500      -835.21300        37.07400  20547012.63400   -147024.75600      -623.73100        31.49300
R06  21570670.17500   -708034.71700     -5068.64400        28.17100
R09  19274979.44800   -367679.19700     -2600.76400        34.79900
R16  22912753.77000   -818027.93710     -5674.07800        23.19200
R07  19196512.96900   -243324.30100     -1749.47300        34.13400
R08  21086393.83500    239116.95600      1607.92400        29.78500
C04  39144574.81300    -79750.70500     -1606.03900        35.72400
C06  36009173.50600  -1573206.90400     -1556.01500        31.50900
E04  26923424.33700    101315.90800       900.51100        31.55300  26923407.55000     85384.10900       673.01500        26.98300
E07  28755739.65200   -448285.03810     -4259.51500         7.00000  28755784.32000  -1340445.07310     -3169.88100         7.00000
E19  23356363.26300   -106505.50600      -987.49100        28.58500  23356363.86000    -96891.00500      -737.99100        26.82000
E21  23518684.39000    -74822.81410      -979.88600        33.16200  23518687.98900    -74255.50510      -731.85900        27.41100
E27  24937089.74900   -290625.08000     -3669.27900        34.82900  24937107.43500   -253678.16000     -2740.08600        30.75100
> 2018 12 17 07 30 26.9997350  0 20
G10  21172675.39800   -602533.68900     -4084.88300        35.82700  21172671.20100   -783987.63700     -3050.43100        25.82400
G12  22054935.22000   -509549.17300     -3472.00100        39.29600         0.00000         0.00000         0.00000         0.00000
G14  21429014.73400     20596.24100        99.21400        36.65700         0.00000         0.00000         0.00000         0.00000
G20  23144822.00800   -775306.13200     -5293.54700        33.98800         0.00000         0.00000         0.00000         0.00000
G22  25189644.00600     63666.33500      1473.20000        28.86200         0.00000         0.00000         0.00000         0.00000
G25  20971975.73700   -189478.76000     -1355.59100        40.05800  20971974.83800   -241903.19900     -1012.33300        36.96900
G31  21847156.86000    107359.34500       669.53300        34.13200         0.00000         0.00000         0.00000         0.00000
G32  20546886.82300   -116381.74300      -835.93800        37.30500  20546887.11900   -147649.00400      -624.24800        31.62300
R06  21571333.11300   -713104.18000     -5069.46200        27.87300
R09  19275204.98800   -370281.01100     -2601.81400        34.76100
R16  22913576.49500   -823700.73410     -5675.87800        22.92400
R07  19196549.64100   -245074.81000     -1750.50900        34.16500
R08  21085815.63000    240724.25600      1607.29900        29.58700
C04  39144597.39400    -81357.10500     -1606.40000        35.80700
C06  36009186.79500  -1574763.35700     -1556.45300        31.55800
E04  26922958.25900    102216.29500       901.04400        31.41900  26922949.56400     86056.88000       672.77100        27.09400
E07  28756264.98600   -452546.11410     -4261.45900         7.00000  28756327.34400  -1343616.69210     -3172.33900         7.00000
E19  23356265.02700   -107492.84500      -988.52700        28.93900  23356265.62900    -97629.46100      -738.45500        26.10100
E21  23518583.45800    -75803.54400      -980.72900        33.28000  23518587.65400    -74987.86300      -732.35800        27.04500
E27  24937504.45800   -294295.02000     -3669.93900        34.51400  24937519.44700   -256418.66900     -2740.50900        30.87500
> 2018 12 17 07 30 27.9997340  0 20
G10  21173170.45200   -606619.39600     -4085.70700        35.59600  21173165.05500   -787038.68900     -3051.05200        26.29000
G12  22055309.75800   -513022.14900     -3472.97600        39.30400         0.00000         0.00000         0.00000         0.00000
G14  21428713.24200     20694.92900        98.68800        36.62400         0.00000         0.00000         0.00000         0.00000
G20  23145543.40400   -780600.16600     -5294.03300        33.75500         0.00000         0.00000         0.00000         0.00000
G22  25189086.19300     65138.89900      1472.56400        28.64000         0.00000         0.00000         0.00000         0.00000
G25  20971947.35400   -190835.41500     -1356.65500        40.20000  20971947.65500   -242916.23400     -1013.03500        37.03900
G31  21846747.74400    108028.24000       668.89400        33.32300         0.00000         0.00000         0.00000         0.00000
G32  20546765.80100   -117218.30800      -836.56500        37.21700  20546759.20500   -148273.73200      -624.72800        31.64900
R06  21571993.95200   -718174.23800     -5070.05800        28.05000
R09  19275398.75500   -372883.84800     -2602.83700        34.74900
R16  22914364.74700   -829373.69710     -5671.15000        24.01800
R07  19196584.81200   -246826.40400     -1751.59400        33.99600
R08  21085237.72700    242330.89000      1606.63400        29.51000
C04  39144619.37700    -82963.80300     -1606.69800        35.72800
C06  36009200.38000  -1576320.16800     -1556.81100        31.47400
E04  26922506.87000    103118.38000       901.30300        31.57400  26922491.57900     86729.36200       672.48300        26.96400
E07  28756790.01900   -456807.57310     -4261.45900         7.00000  28756849.38100  -1346787.44210     -3176.11200         7.00000
E19  23356166.79500   -108482.42400      -989.50300        28.67400  23356167.99500    -98368.37000      -738.90900        26.37700
E21  23518483.42400    -76785.03110      -981.48700        33.28500  23518490.02000    -75720.76310      -733.11200        27.21000
E27  24937907.47900   -297965.54900     -3670.53000        35.01400  24937932.06200   -259159.59300     -2740.92300        30.74900
> 2018 12 17 07 30 28.9997320  0 20
G10  21173587.43400   -610705.91800     -4086.52200        35.48600  21173583.83900   -790090.25800     -3051.56900        26.20900
G12  22055613.71900   -516496.03700     -3473.88800        39.05300         0.00000         0.00000         0.00000         0.00000
G14  21428336.67500     20793.16700        98.23800        36.45800         0.00000         0.00000         0.00000         0.00000
G20  23146193.32900   -785894.64400     -5294.47800        33.55000         0.00000         0.00000         0.00000         0.00000
G22  25188451.80300     66610.94700      1472.04800        29.02500         0.00000         0.00000         0.00000         0.00000
G25  20971848.39400   -192193.10900     -1357.69400        40.27800  20971848.69500   -243930.12200     -1013.88900        36.97900
G31  21846274.04500    108696.46300       668.22400        32.60500         0.00000         0.00000         0.00000         0.00000
G32  20546564.91400   -118055.50200      -837.19400        37.28700  20546561.31500   -148898.84700      -625.11500        31.72300
R06  21572604.60100   -723245.15300     -5070.91500        28.37000
R09  19275518.94400   -375487.70800     -2603.86000        34.98200
R16  22915077.92900   -835047.13810     -5671.08800        24.52600
R07  19196559.90200   -248579.15000     -1752.74600        34.25200
R08  21084586.24900    243936.82300      1605.93300        29.50200
C04  39144570.48100    -84570.81500     -1607.01200        35.60300
C06  36009140.69600  -1577877.31200     -1557.14400        31.73100
E04  26921973.21200    104018.13500       900.43400        31.61900  26921963.31700     87401.60700       672.24400        26.76600
E07  28757243.87800   -461069.03210     -4261.45900         7.00000  28757305.03600  -1349959.29210     -3170.73900         7.00000
E19  23355998.28300   -109472.39200      -992.30800        28.86500  23355998.58400    -99107.69500      -739.32600        26.72900
E21  23518313.11400    -77767.20300      -982.17200        32.78200  23518318.51100    -76454.24600      -733.48300        27.47300
E27  24938256.40900   -301636.60000     -3671.05100        34.76500  24938274.39600   -261901.01600     -2741.42400        30.75600
> 2018 12 17 07 30 29.9997320  0 20
G10  21174083.39100   -614793.11410     -4087.19600        36.01600  21174074.69600   -793142.38910     -3052.40400        26.23100
G12  22055990.35600   -519970.71500     -3474.67800        38.97300         0.00000         0.00000         0.00000         0.00000
G14  21428028.58700     20891.05100        97.88400        36.56000         0.00000         0.00000         0.00000         0.00000
G20  23146912.02900   -791189.42500     -5294.78100        33.24300         0.00000         0.00000         0.00000         0.00000
G22  25187891.28900     68082.58000      1471.63300        29.34500         0.00000         0.00000         0.00000         0.00000
G25  20971822.11400   -193551.61300     -1358.50400        40.24700  20971821.51100   -244944.61300     -1014.49000        37.02100
G31  21845867.62100    109364.16100       667.69700        32.39800         0.00000         0.00000         0.00000         0.00000
G32  20546437.59700   -118893.22600      -837.72400        37.41300  20546434.30400   -149524.47000      -625.62300        31.54200
R06  21573265.14400   -728316.61200     -5071.45900        28.69800
R09  19275719.90000   -378092.34800     -2604.64000        34.45100
R16  22915859.58500   -840720.93410     -5673.10700        24.99000
R07  19196596.87900   -250332.68600     -1753.53600        34.67900
R08  21084005.94700    245542.44500      1605.62200        29.34700
C04  39144593.66400    -86177.94600     -1607.13100        35.79700
C06  36009153.08500  -1579434.64700     -1557.33500        31.80500
E04  26921523.01800    104919.80300       899.74800        31.46300  26921506.53200     88073.72200       672.11500        27.14900
E07  28757768.91100   -465330.49010     -4261.45900         7.00000  28757826.47100  -1353128.63010     -3173.94000         7.00000
E19  23355897.05000   -110462.49700      -990.09700        28.87200  23355902.74700    -99847.35800      -739.66300        26.52000
E21  23518214.28100    -78750.03100      -982.82900        32.71500  23518219.08000    -77188.12600      -733.88000        27.78200
E27  24938667.52300   -305308.10400     -3671.50400        34.62100  24938685.80700   -264642.73500     -2741.71900        30.67800
> 2018 12 17 07 30 30.9997310  0 20
G10  21174574.24800   -618881.04010     -4087.92600        36.25000  21174569.15200   -796195.09310     -3053.25100        25.97000
G12  22056366.39500   -523446.22900     -3475.51400        38.67100         0.00000         0.00000         0.00000         0.00000
G14  21427726.79400     20988.49000        97.44000        36.67500         0.00000         0.00000         0.00000         0.00000
G20  23147631.32700   -796484.66800     -5295.24300        32.90000         0.00000         0.00000         0.00000         0.00000
G22  25187330.17300     69553.84700      1471.26700        29.36000         0.00000         0.00000         0.00000         0.00000
G25  20971792.53100   -194911.21500     -1359.60200        40.29000  20971794.32800   -245959.83900     -1015.22600        37.11200
G31  21845455.20700    110031.25200       667.09200        31.81600         0.00000         0.00000         0.00000         0.00000
G32  20546313.88400   -119731.52000      -838.29500        37.43600  20546308.18600   -150150.45500      -625.98500        31.59500
R06  21573930.18100   -733388.86800     -5072.25600        28.48600
R09  19275916.06300   -380698.06700     -2605.71900        34.55800
R16  22916658.32600   -846394.86500     -5673.93100        25.31900
R07  19196643.74100   -252087.21800     -1754.53200        34.51000
R08  21083419.35300    247147.36200      1604.91700        29.47900
C04  39144616.54500    -87785.37500     -1607.42900        35.88200
C06  36009166.07200  -1580992.31800     -1557.67100        31.64000
E04  26921063.53600    105818.95200       900.47200        31.20800  26921050.64500     88745.61800       671.89700        27.28200
E07  28758294.54700   -469593.89410     -4261.45900         7.00000  28758356.30300  -1356299.32810     -3176.24500         7.92100
E19  23355804.51100   -111453.02300      -990.94300        29.17300  23355803.91300   -100587.50200      -740.14400        26.53000
E21  23518115.74800    -79733.46200      -983.43100        32.68000  23518122.34400    -77922.52600      -734.40000        27.56200
E27  24939083.73300   -308980.11700     -3672.01300        34.66500  24939099.01900   -267384.82300     -2742.08800        30.49700
> 2018 12 17 07 30 31.9997290  0 20
G10  21174994.82900   -622969.79010     -4088.74900        35.93600  21174987.93100   -799248.33310     -3053.76400        26.07000
G12  22056670.05500   -526922.72500     -3476.49600        38.27200         0.00000         0.00000         0.00000         0.00000
G14  21427348.72700     21085.43600        96.94600        36.81600         0.00000         0.00000         0.00000         0.00000
G20  23148282.15000   -801780.34600     -5295.67800        32.52600         0.00000         0.00000         0.00000         0.00000
G22  25186695.78300     71024.46900      1470.62100        29.43400         0.00000         0.00000         0.00000         0.00000
G25  20971694.16900   -196271.67200     -1360.45700        40.16100  20971695.66900   -246975.82400     -1015.98500        37.08300
G31  21844966.81400    110697.75300       666.50100        31.75000         0.00000         0.00000         0.00000         0.00000
G32  20546114.49300   -120570.41700      -838.89700        37.28400  20546110.89400   -150776.86800      -626.41300        31.69900
R06  21574518.64600   -738461.76900     -5072.90100        28.40500
R09  19276043.44500   -383304.65300     -2606.58600        34.49400
R16  22917363.71100   -852069.13600     -5674.27100        25.35400
R07  19196603.54000   -253842.75200     -1755.53400        34.59200
R08  21082757.38400    248751.65200      1604.29000        28.96700
C04  39144568.25200    -89393.06900     -1607.69500        35.75900
C06  36009107.88500  -1582550.31600     -1557.99700        31.57200
E04  26920530.47600    106719.38900       899.21500        31.35300  26920521.18300     89417.32300       671.70500        26.87400
E07  28758748.40500   -473857.30410     -4261.46600         7.00000  28758807.46500  -1359469.43010     -3179.99900         7.00000
E19  23355634.50200   -112444.23500      -991.65200        29.02000  23355636.00300   -101327.98400      -740.48200        26.90100
E21  23517947.53700    -80717.64100      -984.17900        32.92400  23517951.13200    -78657.48700      -734.96000        27.97300
E27  24939428.16500   -312652.70300     -3672.58600        34.67100  24939440.15800   -270127.34500     -2742.52100        30.32100
> 2018 12 17 07 30 32.9997280  0 20
G10  21175485.68600   -627059.27000     -4089.48000        35.87800  21175479.98800   -802302.13300     -3053.80100        25.83100
G12  22057046.69200   -530400.05800     -3477.33300        38.01100         0.00000         0.00000         0.00000         0.00000
G14  21427046.93400     21181.95500        96.51900        36.76300         0.00000         0.00000         0.00000         0.00000
G20  23149000.85100   -807076.42500     -5296.07800        32.26400         0.00000         0.00000         0.00000         0.00000
G22  25186136.46900     72494.65500      1470.18600        29.41400         0.00000         0.00000         0.00000         0.00000
G25  20971669.38500   -197633.23200     -1361.56000        40.16400  20971668.48600   -247992.54600     -1016.72200        37.08400
G31  21844558.89800    111363.60000       665.84600        31.41600         0.00000         0.00000         0.00000         0.00000
G32  20545987.17700   -121409.88600      -839.46900        37.26600  20545983.88300   -151403.76500      -626.89800        31.75500
R06  21575179.48500   -743535.43400     -5073.66500        28.41800
R09  19276253.10100   -385912.24800     -2607.59500        34.28500
R16  22918127.98300   -857743.83800     -5674.70100        26.02400
R07  19196665.09600   -255599.27200     -1756.52000        34.85400
R08  21082150.70100    250355.36800      1603.71700        28.55700
C04  39144590.53200    -91001.01500     -1607.94600        35.95300
C06  36009121.77500  -1584108.60400     -1558.28800        31.57500
E04  26920073.09200    107618.05100       899.28300        31.07300  26920063.79600     90088.71200       671.38800        26.63500
E07  28759274.33700   -478120.33110     -4263.41000         7.00000  28759333.39700  -1362642.62310     -3176.07400         7.00000
E19  23355540.46300   -113435.83800      -990.63100        29.11000  23355538.36500   -102068.91600      -740.93200        26.40100
E21  23517849.30100    -81702.48600      -984.84500        33.01400  23517853.49800    -79392.94100      -735.45500        28.46000
E27  24939839.87700   -316325.80800     -3673.10500        34.60500  24939853.36600   -272870.23800     -2742.89300        30.50300
> 2018 12 17 07 30 33.9997270  0 20
G10  21175976.84400   -631149.43000     -4090.16000        35.59500  21175972.64700   -805356.53000     -3054.39700        26.37700
G12  22057422.73100   -533878.14800     -3478.09000        37.75900         0.00000         0.00000         0.00000         0.00000
G14  21426743.04300     21278.12900        96.17400        36.75600         0.00000         0.00000         0.00000         0.00000
G20  23149725.84600   -812372.84900     -5296.42400        32.35100         0.00000         0.00000         0.00000         0.00000
G22  25185575.35700     73964.51900      1469.86500        29.33300         0.00000         0.00000         0.00000         0.00000
G25  20971642.20200   -198995.66600     -1362.43500        39.96700  20971641.90100   -249009.92100     -1017.37500        37.22200
G31  21844144.97900    112028.95100       665.35200        32.27300         0.00000         0.00000         0.00000         0.00000
G32  20545862.26400   -122249.90700      -840.02100        37.04400  20545859.86400   -152031.08400      -627.31800        31.87800
R06  21575849.91800   -748609.66400     -5074.23000        28.73100
R09  19276446.26600   -388520.68500     -2608.43700        34.46400
R16  22918900.04200   -863418.80100     -5674.96400        25.87500
R07  19196705.96500   -257356.73900     -1757.46700        34.85500
R08  21081565.90500    251958.54100      1603.17300        28.35900
C04  39144614.01500    -92609.09300     -1608.07800        35.66200
C06  36009135.36000  -1585667.10800     -1558.50500        31.51800
E04  26919618.70200    108518.04700       899.76400        30.89600  26919606.11100     90760.05000       671.33900        26.65300
E07  28759799.97300   -482383.74110     -4263.41000         7.00000  28759864.72600  -1365813.37710     -3175.97900         7.00000
E19  23355443.13000   -114428.08100      -993.29900        29.01900  23355441.03200   -102810.19300      -741.27600        26.56700
E21  23517749.26700    -82688.00000      -985.51400        32.79400  23517754.36300    -80128.81700      -735.87600        28.16500
E27  24940257.28600   -319999.34200     -3673.53300        34.38100  24940266.28200   -275613.51800     -2743.28000        30.73000
> 2018 12 17 07 30 34.9997260  0 20
G10  21176396.52600   -635240.41610     -4090.98600        35.44000  21176393.52900   -808411.44310     -3055.28000        25.81100
G12  22057730.29100   -537357.19900     -3479.05100        37.81400         0.00000         0.00000         0.00000         0.00000
G14  21426366.77200     21373.86300        95.73400        36.80200         0.00000         0.00000         0.00000         0.00000
G20  23150377.86500   -817669.69100     -5296.84200        32.13700         0.00000         0.00000         0.00000         0.00000
G22  25184940.37000     75433.80500      1469.28600        29.20400         0.00000         0.00000         0.00000         0.00000
G25  20971545.34000   -200359.03900     -1363.37300        39.91900  20971543.84400   -250028.05900     -1018.13800        37.06900
G31  21843658.09200    112693.64600       664.69400        33.10100         0.00000         0.00000         0.00000         0.00000
G32  20545663.47100   -123090.54000      -840.63300        36.86000  20545661.37200   -152658.84400      -627.76100        31.78400
R06  21576447.68000   -753684.55300     -5074.88900        28.49500
R09  19276575.74600   -391130.11500     -2609.43000        34.56100
R16  22919595.53700   -869094.15200     -5675.35000        26.00000
R07  19196676.55700   -259115.22900     -1758.49000        34.66500
R08  21080909.92900    253561.22400      1602.68200        28.35600
C04  39144565.12000    -94217.47300     -1608.37900        35.71500
C06  36009078.37200  -1587225.95300     -1558.84500        31.39400
E04  26919092.23700    109416.67700       898.97100        30.78000  26919078.44700     91431.07000       671.02000        26.81900
E07  28760253.22900   -486647.15110     -4263.41000         7.00000  28760314.08700  -1368989.90010     -3183.27700         7.00000
E19  23355274.61800   -115419.18500      -993.23800        28.88000  23355273.41800   -103551.86200      -741.66900        26.57900
E21  23517581.35700    -83674.15300      -986.15300        33.23800  23517584.95200    -80865.21800      -736.40000        28.00800
E27  24940603.21900   -323673.41300     -3674.07100        34.82000  24940607.71700   -278357.10900     -2743.59100        30.65200
> 2018 12 17 07 30 35.9997250  0 20
G10  21176893.97900   -639332.11110     -4091.69500        34.99000  21176886.48400   -811466.95810     -3055.66300        25.73800
G12  22058107.82700   -540837.07600     -3479.87700        37.63800         0.00000         0.00000         0.00000         0.00000
G14  21426066.17900     21469.14100        95.27800        36.77700         0.00000         0.00000         0.00000         0.00000
G20  23151104.66200   -822966.97200     -5297.28100        32.77600         0.00000         0.00000         0.00000         0.00000
G22  25184386.15100     76902.71300      1468.90800        28.62300         0.00000         0.00000         0.00000         0.00000
G25  20971518.15700   -201723.42300     -1364.38400        39.85200  20971519.05600   -251046.91700     -1018.85800        36.95900
G31  21843237.57600    113357.74200       664.09600        34.47100         0.00000         0.00000         0.00000         0.00000
G32  20545534.95900   -123931.71000      -841.17000        36.98600  20545534.95900   -153286.98300      -628.13900        32.05300
R06  21577099.22300   -758760.13900     -5075.58600        28.63500
R09  19276787.49600   -393740.42100     -2610.30600        34.67200
R16  22920375.39200   -874769.78210     -5676.15300        25.98100
R07  19196715.03000   -260874.68200     -1759.45300        34.42700
R08  21080318.83800    255163.32600      1602.10200        28.25200
C04  39144588.90000    -95826.06400     -1608.59200        35.61500
C06  36009089.56200  -1588785.02400     -1559.07100        31.42400
E04  26918624.96000    110314.52000       898.72700        30.63600  26918620.76300     92101.96800       670.89800        26.95100
E07  28760778.56300   -490910.56110     -4263.41000         7.00000  28760835.52500  -1372158.15210     -3175.48300        12.04700
E19  23355174.88500   -116412.99000      -991.79700        28.33300  23355176.08500   -104293.96100      -742.10000        26.45700
E21  23517481.32400    -84661.00400      -986.85100        32.75300  23517486.41900    -81602.20400      -736.98700        27.90000
E27  24941023.62600   -327348.01600     -3674.60300        34.54000  24941020.62900   -281101.13000     -2744.02100        30.70600
> 2018 12 17 07 30 36.9997240  0 19
G10  21177382.73800   -643424.42500     -4092.31400        35.04300  21177379.74100   -814522.89400     -3055.93500        26.24000
G12  22058487.46000   -544317.63300     -3480.55700        37.45100         0.00000         0.00000         0.00000         0.00000
G14  21425758.68900     21564.17400        95.03300        36.81300         0.00000         0.00000         0.00000         0.00000
G20  23151823.96000   -828264.45700     -5297.48500        32.68000         0.00000         0.00000         0.00000         0.00000
G22  25183821.13900     78371.31200      1468.59800        28.15300         0.00000         0.00000         0.00000         0.00000
G25  20971490.97400   -203088.56800     -1365.14400        39.77800  20971491.57100   -252066.35800     -1019.44100        36.95600
G31  21842821.56300    114021.48100       663.73900        35.33500         0.00000         0.00000         0.00000         0.00000
G32  20545410.64300   -124773.27700      -841.56700        36.69600  20545409.74500   -153915.37800      -628.39500        31.98900
R06  21577766.96000   -763836.20700     -5076.06800        28.61200
R09  19276992.05200   -396351.50800     -2611.08700        34.91100
R16  22921146.85300   -880445.56010     -5675.85100        26.17800
R07  19196757.99700   -262634.87500     -1760.19300        34.38200
R08  21079737.33600    256765.09900      1601.77300        28.50100
C04  39144612.08300    -97434.69300     -1608.62900        35.83900
C06  36009104.05000  -1590344.26600     -1559.24200        31.15700
E07  28761305.69500   -495173.97110     -4263.41000         7.00000  28761367.15500  -1375337.78110     -3169.57600         7.00000
E19  23355082.64800   -117404.49300      -994.11400        28.67100  23355080.24800   -105036.31100      -742.35000        26.68600
E21  23517385.48700    -85648.34500      -987.34200        32.92800  23517391.18500    -82339.49200      -737.28800        27.55100
E27  24941439.23800   -331022.93200     -3674.91600        34.93600  24941435.03600   -283845.37900     -2744.24900        30.57700
> 2018 12 17 07 30 37.9997230  0 20
G10  21177804.51900   -647517.27500     -4092.85000        34.92800  21177801.22100   -817579.21700     -3056.32300        26.27300
G12  22058793.22300   -547798.88800     -3481.25500        37.10200         0.00000         0.00000         0.00000         0.00000
G14  21425385.72100     21658.99100        94.81700        36.83600         0.00000         0.00000         0.00000         0.00000
G20  23152473.58400   -833562.13700     -5297.68100        32.18600         0.00000         0.00000         0.00000         0.00000
G22  25183184.35000     79839.01610      1467.67300        27.15900         0.00000         0.00010         0.00000         0.00000
G25  20971394.71400   -204454.58800     -1366.02100        39.63100  20971394.71400   -253086.39200     -1020.03400        37.11500
G31  21842333.17500    114684.71000       663.22800        36.16000         0.00000         0.00000         0.00000         0.00000
G32  20545209.75200   -125615.27500      -841.99800        36.65100  20545212.45200   -154544.19200      -628.81300        32.02000
R06  21578359.02000   -768912.79100     -5076.58400        28.44500
R09  19277123.93600   -398963.43000     -2611.92200        35.22000
R16  22921841.14500   -886121.56200     -5676.00100        25.98400
R07  19196726.49000   -264395.87900     -1761.00400        34.06900
R08  21079102.34800    258366.45300      1601.35400        28.57500
C04  39144563.48800    -99043.41800     -1608.72600        35.77600
C06  36009047.06200  -1591903.58900     -1559.32300        31.16400
E01  26294932.90200      3230.47010      1171.41600        32.40200  26294936.20000     20752.31410       887.15900        28.24500
E07  28761759.85500   -499437.38110     -4263.41000         7.00000  28761814.41700  -1378491.07710     -3159.09600         7.00000
E19  23354914.43600   -118399.04900      -994.51800        28.95300  23354911.13800   -105778.88200      -742.57100        26.52100
E21  23517217.87800    -86636.18800      -987.84300        33.24800  23517219.37400    -83077.13600      -737.64300        27.99300
E27  24941781.87300   -334698.20500     -3675.27400        34.92800  24941777.07400   -286589.92600     -2744.54700        30.75600
> 2018 12 17 07 30 38.9997220  0 20
G10  21178225.99800   -651610.77700     -4093.50200        34.52600  21178222.39900   -820636.09200     -3056.87500        25.51700
G12  22059097.18400   -551280.94700     -3482.06000        36.90000         0.00000         0.00000         0.00000         0.00000
G14  21425009.15400     21753.41000        94.41800        36.65400         0.00000         0.00000         0.00000         0.00000
G20  23153122.90600   -838860.15300     -5298.01600        32.12400         0.00000         0.00000         0.00000         0.00000
G22  25182546.66700     81306.93900      1467.92400        26.61400         0.00000         0.00000         0.00000         0.00000
G25  20971294.55400   -205821.43800     -1366.85000        39.47500  20971297.55100   -254107.09600     -1020.70300        36.99400
G31  21841845.08400    115347.46200       662.75300        36.57800         0.00000         0.00000         0.00000         0.00000
G32  20545013.06200   -126457.78200      -842.50700        36.79900  20545014.85900   -155173.28800      -629.09600        32.07500
R06  21578947.78600   -773990.03300     -5077.24200        28.51800
R09  19277261.50900   -401576.15200     -2612.72100        35.26900
R16  22922527.64500   -891797.78010     -5676.27500        25.81100
R07  19196705.77700   -266157.83600     -1761.95700        34.35500
R08  21078446.07600    259967.19510      1600.37100        28.36800
C04  39144514.59700   -100652.32800     -1608.90900        35.60900
C06  36008989.77300  -1593463.16500     -1559.57600        31.21300
E01  26294352.47700      4401.89010      1171.10900        31.96800  26294349.48000     21625.69510       876.71800        28.35500
E07  28762214.61200   -503702.73610     -4263.41000         7.00000  28762278.46600  -1381687.25210     -3164.26000         7.00000
E19  23354740.82900   -119393.00000      -995.09000        28.90700  23354744.72400   -106521.86100      -742.97900        26.23500
E21  23517048.46700    -87624.65300      -988.46500        33.42600  23517049.66600    -83815.35000      -738.21400        28.22400
E27  24942126.00400   -338373.90900     -3675.70300        34.70100  24942119.40800   -289334.70300     -2744.77700        30.70700
> 2018 12 17 07 30 39.9997210  0 20
G10  21178719.85200   -655704.82100     -4094.04500        34.23600  21178715.35900   -823693.31400     -3057.22200        26.05200
G12  22059476.51700   -554763.61400     -3482.66700        36.44400         0.00000         0.00000         0.00000         0.00000
G14  21424703.16500     21847.65500        94.24600        36.98300         0.00000         0.00000         0.00000         0.00000
G20  23153848.20300   -844158.39800     -5298.24500        31.90300         0.00000         0.00000         0.00000         0.00000
G22  25181975.95700     82774.66910      1467.48500        26.00200         0.00000         0.00010         0.00000         0.00000
G25  20971268.57100   -207188.98800     -1367.55000        39.46800  20971271.26700   -255128.34400     -1021.24900        36.99000
G31  21841425.77200    116009.86500       662.40200        36.71400         0.00000         0.00000         0.00000         0.00000
G32  20544887.84800   -127300.61300      -842.83000        36.72400  20544888.74600   -155802.69700      -629.40900        32.08800
R06  21579611.02500   -779067.64400     -5077.61100        28.21500
R09  19277468.76100   -404189.59800     -2613.44700        35.50300
R16  22923318.29700   -897474.00900     -5676.22900        25.87100
R07  19196741.85100   -267920.49000     -1762.65300        34.58500
R08  21077856.48100    261567.71200      1600.51700        28.40200
C04  39144536.87600   -102261.19300     -1608.86500        35.75200
C06  36009002.16300  -1595022.80400     -1559.63900        31.07800
E01  26293853.42200      5572.64110      1171.00800        31.39400  26293845.02500     22500.25110       874.34300        28.53600
E07  28762740.24700   -507968.09710     -4263.41700         7.00000  28762805.89900  -1384864.83310     -3156.90500         9.19600
E19  23354646.49300   -120388.15400      -994.13700        28.55400  23354648.29000   -107265.00900      -743.14800        25.76400
E21  23516951.12900    -88613.53100      -988.87900        33.35500  23516952.92700    -84553.73400      -738.38400        28.41300
E27  24942541.61600   -342049.91200     -3676.00300        34.99800  24942532.92100   -292079.80300     -2745.10000        30.60700
> 2018 12 17 07 30 40.9997200  0 20
G10  21179205.01600   -659799.49610     -4094.67400        33.63700  21179207.41600   -826751.04910     -3058.26500        25.44500
G12  22059853.15400   -558247.08600     -3483.47200        36.03100         0.00000         0.00000         0.00000         0.00000
G14  21424404.36900     21941.54100        93.88600        36.99100         0.00000         0.00000         0.00000         0.00000
G20  23154568.70000   -849456.91600     -5298.51800        32.12000         0.00000         0.00000         0.00000         0.00000
G22  25181405.85000     84241.99400      1467.32400        25.55800         0.00000         0.00000         0.00000         0.00000
G25  20971242.28600   -208557.46600     -1368.47800        39.22500  20971245.88100   -256150.24100     -1021.89600        36.82900
G31  21841007.95700    116671.76200       661.89700        36.98900         0.00000         0.00000         0.00000         0.00000
G32  20544763.53200   -128143.90500      -843.29200        36.72600  20544764.43100   -156432.38100      -629.68400        32.21600
R06  21580275.46400   -784145.85400     -5078.21000        28.04300
R09  19277663.13000   -406803.87500     -2614.27700        35.28300
R16  22924086.15900   -903150.54000     -5676.53100        26.05100
R07  19196791.11300   -269683.97600     -1763.48700        34.25300
R08  21077262.09200    263167.78400      1600.07200        27.83200
C04  39144560.36000   -103870.22600     -1609.03300        35.60600
C06  36009015.15000  -1596582.55300     -1559.75000        31.11300
E01  26293345.66900      6743.51610      1170.40000        31.03800  26293333.97700     23374.63310       874.08300        28.88000
E07  28763266.17900   -512233.07610     -4265.36100         7.20400  28763331.23400  -1388040.32410     -3177.71300         7.00000
E19  23354549.15500   -121383.79100      -996.33200        28.99100  23354550.65600   -108008.50800      -743.49900        25.83900
E21  23516854.99600    -89602.95500      -989.42400        33.33500  23516854.99600    -85292.63100      -738.89600        28.58500
E27  24942961.12300   -345726.30300     -3676.39100        34.92900  24942945.83300   -294825.14800     -2745.34600        30.47300
> 2018 12 17 07 30 41.9997190  0 20
G10  21179627.09800   -663895.08500     -4095.58900        33.70500  21179629.49300   -829809.40800     -3058.35800        25.29500
G12  22060157.71700   -561731.55900     -3484.47300        35.88800         0.00000         0.00000         0.00000         0.00000
G14  21424028.09900     22034.88200        93.34100        37.11300         0.00000         0.00000         0.00000         0.00000
G20  23155221.91900   -854755.98100     -5299.06500        32.07500         0.00000         0.00000         0.00000         0.00000
G22  25180771.76100     85708.63800      1466.64400        25.14900         0.00000         0.00000         0.00000         0.00000
G25  20971145.42500   -209927.07700     -1369.61100        39.43300  20971149.32000   -257173.01100     -1022.77100        37.26800
G31  21840518.06900    117332.88500       661.12300        37.01700         0.00000         0.00000         0.00000         0.00000
G32  20544566.83800   -128987.96100      -844.05700        36.53100  20544567.73700   -157062.70300      -630.32200        32.13300
R06  21580874.41600   -789224.86800     -5079.01400        27.55400
R09  19277806.40100   -409419.23700     -2615.36200        35.42200
R16  22924782.24800   -908827.49200     -5676.95200        26.97400
R07  19196763.20600   -271448.58600     -1764.60900        34.26200
R08  21076601.61900    264767.12900      1599.34500        27.72400
C04  39144512.36300   -105479.65000     -1609.42400        35.78700
C06  36008955.76700  -1598142.80200     -1560.24800        31.01400
E01  26292754.45100      7913.81700      1170.30200        30.83700  26292754.45100     24248.57100       873.93800        29.31000
E07  28763720.33800   -516498.43710     -4265.36100         7.06700  28763788.08900  -1391220.87410     -3195.37700         7.00000
E19  23354383.64400   -122380.12200      -994.99100        28.77100  23354381.84300   -108752.52000      -744.01200        26.11100
E21  23516685.58500    -90593.22800      -990.27300        33.39100  23516685.58500    -86032.11900      -739.48800        28.22400
E27  24943302.25800   -349403.34200     -3677.04000        35.20800  24943288.16700   -297570.99800     -2745.85000        30.35100
> 2018 12 17 07 30 42.9997180  0 19
G10  21180123.05100   -667991.67800     -4096.59300        33.39800  21180123.35200   -832868.51500     -3059.10800        25.37600
G12  22060537.95300   -565217.11600     -3485.55700        36.12900         0.00000         0.00000         0.00000         0.00000
G14  21423725.40700     22127.56700        92.68400        37.08000         0.00000         0.00000         0.00000         0.00000
G20  23155949.31400   -860055.72700     -5299.74700        31.84700         0.00000         0.00000         0.00000         0.00000
G25  20971120.64100   -211297.85600     -1370.77900        39.20500  20971124.23600   -258196.64400     -1023.63300        37.20000
G31  21840109.24900    117993.20000       660.31500        37.16900         0.00000         0.00000         0.00000         0.00000
G32  20544441.62400   -129832.80200      -844.84100        36.49500  20544442.52300   -157693.64400      -630.94100        32.22100
R06  21581540.95300   -794304.87500     -5080.00600        27.38000
R09  19278000.46100   -412035.72200     -2616.48500        34.77400
R16  22925556.71500   -914505.05800     -5677.56600        26.74100
R07  19196803.17500   -273214.55600     -1765.97100        34.09300
R08  21076015.92400    266365.53300      1598.40400        27.62500
C04  39144536.14400   -107089.55800     -1609.90800        35.83400
C06  36008969.95400  -1599703.54200     -1560.74000        31.14500
E01  26292244.90100      9083.42000      1169.60300        31.07400  26292246.70200     25121.94600       873.37500        29.09100
E07  28764245.97000   -520763.79810     -4265.36100         9.19500  28764311.02400  -1394404.29810     -3180.49500         7.00000
E19  23354282.71200   -123374.61500      -995.94300        28.78200  23354286.30700   -109497.08800      -744.56800        26.49800
E21  23516589.14600    -91584.41500      -991.18700        33.30100  23516589.14600    -86772.29300      -740.17400        27.90100
E27  24943716.36900   -353081.16800     -3677.82600        35.37900  24943702.27800   -300317.42900     -2746.43100        30.35500
> 2018 12 17 07 30 43.9997170  0 20
G10  21180611.80900   -672088.89210     -4097.21400        32.35300  21180618.10400   -835928.14210     -3059.22000        25.77000
G12  22060915.48800   -568703.45600     -3486.34000        36.16200         0.00000         0.00000         0.00000         0.00000
G14  21423420.31600     22219.88400        92.31800        37.17200         0.00000         0.00000         0.00000         0.00000
G20  23156671.31200   -865355.72300     -5299.99500        31.60200         0.00000         0.00000         0.00000         0.00000
G22  25179656.42600     88640.85500      1465.73000        25.37900         0.00000         0.00000         0.00000         0.00000
G25  20971096.45500   -212669.48600     -1371.63100        39.00200  20971099.45200   -259220.92000     -1024.27600        37.45400
G31  21839693.83800    118653.02100       659.82100        37.09000         0.00000         0.00000         0.00000         0.00000
G32  20544317.60500   -130678.14600      -845.34400        36.51900  20544317.00800   -158324.91600      -631.27300        32.19900
R06  21582222.18400   -799385.43100     -5080.55600        27.13000
R09  19278203.22300   -414653.13000     -2617.40900        34.47600
R16  22926329.07900   -920182.75800     -5677.70000        26.80200
R07  19196862.03500   -274981.24900     -1766.69200        34.17900
R08  21075438.62300    267963.54700      1598.01500        27.50400
C04  39144560.22500   -108700.07200     -1610.51400        36.01600
C06  36008983.54300  -1601264.45600     -1560.91400        30.91600
E01  26291737.15200     10252.70300      1169.28300        31.08000  26291737.74900     25995.09600       873.15000        29.72200
E07  28764771.90600   -525029.15910     -4265.36100         8.33500  28764835.46000  -1397584.79210     -3180.49500         7.00000
E19  23354188.97400   -124372.22600      -996.02700        28.73500  23354190.47100   -110242.00400      -744.91600        26.08700
E21  23516492.41100    -92576.17700      -991.76200        33.50300  23516490.31300    -87512.92000      -740.62700        28.38200
E27  24944132.27700   -356759.39300     -3678.22500        35.58100  24944116.69000   -303064.16400     -2746.73500        30.16500
> 2018 12 17 07 30 44.9997160  0 20
G10  21181032.69100   -676185.90910     -4097.01600        32.02100  21181039.58400   -838987.60010     -3059.92400        25.63200
G12  22061225.44800   -572189.66800     -3486.21100        36.08900         0.00000         0.00000         0.00000         0.00000
G14  21423046.44500     22312.75900        92.87400        37.30300         0.00000         0.00000         0.00000         0.00000
G20  23157324.83100   -870655.16700     -5299.44400        31.77800         0.00000         0.00000         0.00000         0.00000
G22  25179020.84200     90106.96900      1466.11400        25.48900         0.00000         0.00000         0.00000         0.00000
G25  20970998.99500   -214041.11900     -1371.63300        38.97000  20971003.19200   -260245.19500     -1024.27600        37.31900
G31  21839211.74100    119313.18600       660.16500        37.08500         0.00000         0.00000         0.00000         0.00000
G32  20544121.51300   -131523.08800      -844.94200        36.65300  20544120.01600   -158955.85500      -630.93900        32.45100
R06  21582800.15200   -804465.68900     -5080.25800        27.33200
R09  19278330.90700   -417270.46900     -2617.33900        34.38000
R16  22927055.14800   -925859.86700     -5677.10900        27.30500
R07  19196826.02600   -276748.04100     -1766.79200        33.96500
R08  21074781.44800    269561.98500      1598.43800        27.77200
C04  39144511.03300   -110308.90200     -1608.83000        36.00600
C06  36008927.15300  -1602824.76800     -1560.31200        30.74700
E01  26291152.22900     11422.53300      1169.83000        30.88100  26291157.92200     26868.67800       873.58200        29.66700
E07  28765226.96000   -529294.52010     -4265.36100         7.47400  28765290.81900  -1400765.14010     -3180.49500         7.00000
E19  23354025.26100   -125367.76700      -998.69500        28.86800  23354022.86100   -110986.53600      -744.53200        25.86200
E21  23516323.00400    -93567.64200      -991.46500        33.17000  23516322.70300    -88253.24900      -740.32900        28.16700
E27  24944474.91200   -360437.14400     -3677.75100        35.31000  24944459.02400   -305810.53600     -2746.37200        30.00200
> 2018 12 17 07 30 45.9997150  0 20
G10  21181527.74500   -680283.96400     -4098.05500        31.90100  21181534.34100   -842047.88900     -3060.28900        25.70700
G12  22061602.38100   -575677.09300     -3487.42500        35.88700         0.00000         0.00000         0.00000         0.00000
G14  21422741.95700     22404.84200        92.08300        37.47500         0.00000         0.00000         0.00000         0.00000
G20  23158047.42700   -875955.38900     -5300.22300        31.65100         0.00000         0.00000         0.00000         0.00000
G22  25178451.33200     91571.77710      1465.10300        25.43000         0.00000         0.00010         0.00000         0.00000
G25  20970973.30900   -215414.08800     -1372.96900        38.76200  20970977.80700   -261270.45200     -1025.25700        37.29700
G31  21838797.82600    119972.46400       659.27800        36.93800         0.00000         0.00000         0.00000         0.00000
G32  20543994.20000   -132368.93800      -845.85100        36.47700  20543996.60000   -159587.46500      -631.61100        32.33900
R06  21583469.38600   -809546.91400     -5081.22600        27.10800
R09  19278532.16000   -419889.05300     -2618.58300        34.37600
R16  22927832.00500   -931537.73400     -5677.86700        27.81500
R07  19196869.60000   -278516.17400     -1768.13300        33.87300
R08  21074205.04500    271159.61200      1597.62600        27.88300
C04  39144534.51600   -111918.77100     -1609.86800        35.95800
C06  36008938.64400  -1604385.66500     -1560.89700        30.53900
E01  26290643.87800     12591.54000      1169.00700        30.70500  26290649.57600     27741.63600       872.95800        29.74600
E07  28765752.89600   -533559.88110     -4265.36100         7.00000  28765811.95600  -1403940.83810     -3174.26400         7.00000
E19  23353926.12600   -126365.76600      -998.20700        29.09600  23353926.72400   -111731.76300      -745.22700        26.25300
E21  23516228.06700    -94560.13600      -992.49400        33.65700  23516225.96800    -88994.36900      -741.12000        28.31400
E27  24944887.82400   -364115.77300     -3678.63000        35.43000  24944872.23600   -308557.53900     -2747.00300        29.89700
> 2018 12 17 07 30 46.9997140  0 20
G10  21182011.70900   -684383.01100     -4099.04700        31.33000  21182028.79800   -845108.86800     -3060.97800        25.24900
G12  22061982.01900   -579165.56700     -3488.47400        36.26000         0.00000         0.00000         0.00000         0.00000
G14  21422438.96400     22496.32400        91.48200        37.22300         0.00000         0.00000         0.00000         0.00000
G20  23158767.32700   -881256.25100     -5300.86200        31.30200         0.00000         0.00000         0.00000         0.00000
G22  25177882.72500     93036.35000      1464.57200        25.27100         0.00000         0.00000         0.00000         0.00000
G25  20970950.02100   -216788.20000     -1374.11200        38.86900  20970953.92200   -262296.58300     -1026.13100        37.32600
G31  21838386.31100    120630.91400       658.45000        36.89900         0.00000         0.00000         0.00000         0.00000
G32  20543870.18600   -133215.58100      -846.64300        36.56100  20543870.78400   -160219.69000      -632.22500        32.31200
R06  21584133.22700   -814629.08800     -5082.17400        27.57100
R09  19278749.60700   -422508.80500     -2619.75300        34.64500
R16  22928618.46000   -937216.13900     -5678.40500        28.36800
R07  19196902.07400   -280285.45200     -1769.27800        33.32500
R08  21073674.80700    272756.42210      1596.88100        27.52500
C04  39144557.39800   -113529.12000     -1610.35000        36.00700
C06  36008953.13200  -1605947.03300     -1561.36800        30.49900
E01  26290125.03500     13759.90700      1168.36600        30.32600  26290143.62000     28614.12400       872.48900        29.83200
E07  28766279.72700   -537826.21510     -4265.36100         7.14500  28766341.18700  -1407130.61710     -3193.96600         7.00000
E19  23353829.98800   -127361.33800      -998.36000        29.22700  23353831.48900   -112477.57800      -745.81500        26.57000
E21  23516132.23000    -95553.51800      -993.38200        33.41200  23516129.23300    -89736.22100      -741.85200        28.40600
E27  24945301.33700   -367795.08800     -3679.31500        35.55000  24945286.64800   -311305.07300     -2747.53500        29.55900
> 2018 12 17 07 30 47.9997130  0 20
G10  21182508.56100   -688482.92000     -4099.90900        30.98800  21182521.15100   -848170.51100     -3061.64400        24.84300
G12  22062360.15200   -582655.06700     -3489.49900        36.25500         0.00000         0.00000         0.00000         0.00000
G14  21422135.97200     22587.28000        90.95600        37.41700         0.00000         0.00000         0.00000         0.00000
G20  23159489.02500   -886557.51100     -5301.26000        30.86000         0.00000         0.00000         0.00000         0.00000
G22  25177314.71600     94500.46310      1463.84400        25.38900         0.00000         0.00010         0.00000         0.00000
G25  20970926.73800   -218163.39100     -1375.19100        38.98100  20970929.73600   -263323.55100     -1026.96700        37.27800
G31  21837974.19400    121288.68300       657.76900        36.27000         0.00000         0.00000         0.00000         0.00000
G32  20543744.06900   -134062.88800      -847.30700        36.49100  20543746.16700   -160852.43700      -632.74700        32.49500
R06  21584807.85700   -819712.00900     -5082.92000        27.61400
R09  19278941.87400   -425129.69100     -2620.88600        34.68400
R16  22929415.10700   -942894.88000     -5678.74000        28.94100
R07  19196946.83900   -282055.79900     -1770.34700        33.14400
R08  21073058.83200    274352.45500      1596.03200        27.29200
C04  39144580.87700   -115139.78800     -1610.66800        35.91400
C06  36008968.21800  -1607508.81100     -1561.77800        30.57000
E01  26289619.68100     14927.74000      1167.83300        30.22000  26289633.77200     29486.20200       872.07800        29.91500
E07  28766805.66300   -542092.55210     -4265.36900         7.00000  28766852.73100  -1410308.14310     -3193.98600         7.00000
E19  23353737.45000   -128360.75800      -998.61900        28.99300  23353733.85500   -113223.82500      -746.24700        26.31500
E21  23516035.19400    -96547.63600      -994.11800        33.51000  23516032.19700    -90478.54600      -742.32500        28.30200
E27  24945713.65100   -371475.05300     -3679.96500        35.29600  24945701.65800   -314053.06800     -2747.99400        29.91500
> 2018 12 17 07 30 48.9997120  0 20
G10  21182931.54100   -692583.50800     -4100.58800        30.42200  21182946.83200   -851232.54800     -3062.03700        25.04900
G12  22062664.71500   -586145.22200     -3490.15500        36.03600         0.00000         0.00000         0.00000         0.00000
G14  21421760.00200     22677.89600        90.61500        37.15400         0.00000         0.00000         0.00000         0.00000
G20  23160140.44600   -891859.12000     -5301.60900        30.92600         0.00000         0.00000         0.00000         0.00000
G22  25176667.43500     95964.62700      1464.16400        25.04800         0.00000         0.00000         0.00000         0.00000
G25  20970829.57600   -219539.49200     -1376.10000        39.13400  20970833.77200   -264351.12100     -1027.57100        37.21400
G31  21837489.09900    121945.95000       657.26600        35.98900         0.00000         0.00000         0.00000         0.00000
G32  20543550.07500   -134910.66300      -847.77500        36.38900  20543549.47700   -161485.51700      -633.08000        32.48300
R06  21585411.90900   -824795.46700     -5083.45900        27.71500
R09  19279080.65100   -427751.21600     -2621.52500        34.83000
R16  22930127.38100   -948573.85500     -5678.97500        29.16800
R07  19196925.22600   -283826.98200     -1771.18300        33.53300
R08  21072401.66100    275948.14200      1595.68800        27.00900
C04  39144532.88500   -116750.56800     -1610.78000        35.97900
C06  36008910.62700  -1609070.79500     -1561.98400        30.84200
E01  26289038.35800     16095.23300      1167.49300        30.16500  26289054.54700     30358.06000       871.85800        29.91700
E07  28767261.01800   -546359.67110     -4266.33700         7.00000  28767309.28600  -1413495.32010     -3190.78400         7.00000
E19  23353562.04500   -129357.51900      -999.39600        28.98900  23353570.13700   -113970.33600      -746.51100        26.23100
E21  23515864.58300    -97542.35000      -994.71400        33.03100  23515864.28600    -91221.35800      -742.81200        28.31800
E27  24946052.38600   -375155.37800     -3680.32500        35.14900  24946044.89100   -316801.44000     -2748.37200        29.94800
> 2018 12 17 07 30 49.9997110  0 20
G10  21183426.89600   -696684.68310     -4101.17500        30.60500  21183438.88900   -854295.17610     -3062.91900        25.23400
G12  22063044.34900   -589636.28000     -3491.05800        35.87300         0.00000         0.00000         0.00000         0.00000
G14  21421454.61000     22768.14700        90.25100        36.96900         0.00000         0.00000         0.00000         0.00000
G20  23160867.54400   -897161.06600     -5301.94600        30.86400         0.00000         0.00000         0.00000         0.00000
G22  25176096.72600     97427.92400      1463.29700        25.69200         0.00000         0.00000         0.00000         0.00000
G25  20970808.09000   -220916.44800     -1376.95600        39.22800  20970810.48500   -265379.39800     -1028.27700        37.15500
G31  21837085.97700    122602.69400       656.74400        35.73400         0.00000         0.00000         0.00000         0.00000
G32  20543423.05900   -135758.98200      -848.32000        36.31100  20543425.45800   -162119.04100      -633.52500        32.55800
R06  21586084.14400   -829879.53110     -5084.09500        28.00100
R09  19279301.39600   -430373.72000     -2622.50400        35.05200
R16  22930898.24900   -954253.00200     -5679.14800        29.42000
R07  19196974.78900   -285599.10000     -1772.11800        33.72000
R08  21071812.66800    277543.23600      1595.09400        27.05200
C04  39144556.66500   -118361.54100     -1610.97200        35.99600
C06  36008922.11800  -1610632.96900     -1562.17400        30.96800
E01  26288529.70600     17262.35400      1167.12200        30.00700  26288546.49300     31229.57300       871.51300        30.04200
E07  28767787.25100   -550626.98310     -4266.34500         7.00000  28767850.20700  -1416675.78910     -3181.86700         7.00000
E19  23353471.60400   -130357.22100      -999.30500        29.18100  23353473.40200   -114717.26800      -746.93200        26.05600
E21  23515770.54800    -98537.67400      -995.32400        33.27900  23515767.25000    -91964.62500      -743.26700        28.36200
E27  24946465.59800   -378836.16600     -3680.78700        35.30500  24946458.70100   -319550.08700     -2748.64700        30.00300
> 2018 12 17 07 30 50.9997100  0 20
G10  21183924.65000   -700786.58100     -4101.89800        31.12200  21183934.24400   -857358.19300     -3063.01700        25.34200
G12  22063423.68600   -593128.08800     -3491.80800        35.71100         0.00000         0.00000         0.00000         0.00000
G14  21421151.91900     22858.06600        89.91900        36.94200         0.00000         0.00000         0.00000         0.00000
G20  23161589.53800   -902463.34800     -5302.28200        29.61800         0.00000         0.00000         0.00000         0.00000
G22  25175518.22500     98890.88500      1462.96100        25.66300         0.00000         0.00000         0.00000         0.00000
G25  20970782.70400   -222294.27000     -1377.82200        39.23800  20970786.60000   -266408.25500     -1028.85700        37.27100
G31  21836679.85400    123258.90300       656.20900        35.82300         0.00000         0.00000         0.00000         0.00000
G32  20543301.44400   -136607.78100      -848.79800        36.15200  20543300.54500   -162752.81600      -633.77500        32.59700
R06  21586733.29200   -834964.23010     -5085.16700        27.56000
R09  19279502.05200   -432997.09800     -2623.37700        34.94400
R16  22931689.49800   -959932.50700     -5679.50400        29.42300
R07  19197019.85500   -287372.04500     -1772.94500        33.65200
R08  21071224.87100    279137.80900      1594.57300        27.70000
C04  39144579.84800   -119972.66200     -1611.12200        36.04800
C06  36008937.80600  -1612195.37600     -1562.40700        30.61800
E01  26288018.35800     18429.19500      1166.84000        29.76700  26288040.24500     32100.90900       871.33600        30.14100
E07  28768313.78500   -554895.07710     -4267.31200         7.00000  28768381.54000  -1419856.83910     -3180.49500         7.00000
E19  23353377.86600   -131355.76700     -1000.87500        29.19900  23353377.26900   -115464.53000      -747.26200        26.34300
E21  23515675.01200    -99533.57400      -995.90000        33.13200  23515671.71400    -92708.34000      -743.71600        28.57400
E27  24946879.70900   -382517.38000     -3681.21400        35.36000  24946873.71500   -322298.99200     -2748.90500        30.08600
> 2018 12 17 07 30 51.9997090  0 20
G10  21184349.42800   -704889.22210     -4102.64100        31.61400  21184358.12200   -860421.85110     -3063.84700        25.32100
G12  22063732.14100   -596620.74500     -3492.65700        35.43900         0.00000         0.00000         0.00000         0.00000
G14  21420777.45000     22947.52000        89.45400        37.21500         0.00000         0.00000         0.00000         0.00000
G20  23162235.26600   -907766.02100     -5302.67300        29.25800         0.00000         0.00000         0.00000         0.00000
G22  25174879.34200    100353.37100      1462.48600        24.90200         0.00000         0.00000         0.00000         0.00000
G25  20970688.54300   -223673.05300     -1378.78300        39.31500  20970691.54000   -267437.87900     -1029.62400        37.38000
G31  21836203.75500    123914.58200       655.67800        36.07900         0.00000         0.00000         0.00000         0.00000
G32  20543105.65300   -137457.14600      -849.36600        36.31700  20543105.05100   -163387.15400      -634.33800        32.41800
R06  21587328.35300   -840049.57400     -5085.34400        27.08900
R09  19279630.63800   -435621.33000     -2624.23300        34.86800
R16  22932399.67800   -965612.29300     -5679.78700        29.57900
R07  19196992.84600   -289146.05000     -1774.00500        33.93200
R08  21070575.49100    280731.92100      1594.11200        27.51500
C04  39144532.75000   -121584.01600     -1611.35400        36.02800
C06  36008880.21600  -1613758.05500     -1562.67800        30.68100
E01  26287429.53900     19595.51200      1166.31700        29.94700  26287458.62000     32971.87100       870.96200        30.21800
E07  28768768.54300   -559163.36510     -4267.32000         7.00000  28768826.70400  -1423040.14210     -3180.87600         7.00000
E19  23353209.95600   -132357.05800     -1001.11100        29.19500  23353210.85500   -116212.20600      -747.67500        26.10600
E21  23515502.00200   -100530.12400      -996.54900        33.22100  23515503.80400    -93452.56700      -744.22700        28.59700
E27  24947216.35000   -386199.10400     -3681.72400        35.25500  24947217.54600   -325048.32400     -2749.33200        30.26200
> 2018 12 17 07 30 52.9997080  0 20
G10  21184843.88400   -708992.56610     -4103.34400        32.17100  21184852.27800   -863486.13710     -3064.73400        25.06900
G12  22064109.97700   -600114.31300     -3493.56800        35.52200         0.00000         0.00000         0.00000         0.00000
G14  21420473.25800     23036.56500        89.04500        37.13000         0.00000         0.00000         0.00000         0.00000
G20  23162958.46400   -913069.15800     -5303.13700        29.06600         0.00000         0.00000         0.00000         0.00000
G22  25174308.03500    101815.31100      1461.94100        24.81500         0.00000         0.00000         0.00000         0.00000
G25  20970665.85300   -225052.85900     -1379.80500        39.24300  20970668.25300   -268468.25200     -1030.37400        37.43600
G31  21835797.63700    124569.61700       655.03600        35.91000         0.00000         0.00000         0.00000         0.00000
G32  20542980.73500   -138307.07700      -849.93000        36.27200  20542981.03600   -164021.90900      -634.75500        32.23400
R06  21588002.08000   -845135.62300     -5086.04900        26.97600
R09  19279833.69300   -438246.63700     -2625.30600        34.72600
R16  22933178.03700   -971292.41500     -5680.12200        29.40600
R07  19197042.40900   -290920.98800     -1774.93700        34.43300
R08  21069998.78800    282325.48600      1593.56500        27.38500
C04  39144555.63100   -123195.63200     -1611.61600        35.93300
C06  36008894.40700  -1615321.01600     -1562.96100        30.58300
E01  26286927.18200     20761.41200      1165.90100        29.66800  26286951.76500     33842.49600       870.62600        30.36200
E07  28769295.07700   -563431.46310     -4268.28800         7.00000  28769365.82900  -1426218.04910     -3189.20300         7.00000
E19  23353112.32200   -133357.73400     -1005.09000        29.13200  23353115.01800   -116960.16900      -747.96300        26.30000
E21  23515410.06600   -101527.42500      -997.30200        33.52000  23515409.16700    -94197.23700      -744.67000        28.46700
E27  24947630.46100   -389881.36200     -3682.25800        34.94600  24947631.95800   -327798.05600     -2749.73300        30.03700
> 2018 12 17 07 30 53.9997070  0 20
G10  21185341.03600   -713096.54900     -4103.98300        32.50400  21185347.33200   -866550.73900     -3064.60200        25.25000
G12  22064489.91200   -603608.59000     -3494.27700        35.72800         0.00000         0.00000         0.00000         0.00000
G14  21420172.96600     23125.27300        88.70800        37.06100         0.00000         0.00000         0.00000         0.00000
G20  23163681.65800   -918372.50900     -5303.35200        28.98400         0.00000         0.00000         0.00000         0.00000
G22  25173744.22300    103276.90500      1461.59400        24.37100         0.00000         0.00000         0.00000         0.00000
G25  20970641.66700   -226433.49200     -1380.63300        39.16400  20970644.96500   -269499.22300     -1030.97000        37.26100
G31  21835391.81400    125224.17600       654.55900        35.99600         0.00000         0.00000         0.00000         0.00000
G32  20542857.31900   -139157.51900      -850.44300        36.38200  20542856.42000   -164656.89300      -634.98400        32.41200
R06  21588665.92100   -850222.23500     -5086.61200        27.06300
R09  19280045.44300   -440872.65000     -2626.01400        34.87900
R16  22933952.49900   -976972.81400     -5680.40000        29.11900
R07  19197091.07300   -292696.80800     -1775.82000        34.68700
R08  21069421.48700    283918.50310      1592.24800        27.17900
C04  39144578.81400   -124807.35400     -1611.72200        35.85200
C06  36008906.49600  -1616884.15100     -1563.13500        30.71600
E01  26286409.84000     21926.95600      1165.54300        29.54700  26286443.41400     34712.88100       870.38500        30.29500
E07  28769821.31000   -567699.75110     -4268.28800         7.60200  28769883.66800  -1429394.49310     -3202.73200         7.00000
E19  23353015.88800   -134359.93800     -1001.71300        29.28700  23353021.58100   -117708.54700      -748.37800        26.25100
E21  23515312.72800   -102525.19200      -997.76600        33.51700  23515311.83000    -94942.31500      -745.07800        28.58900
E27  24948043.66900   -393564.00200     -3682.64000        35.15600  24948046.96800   -330548.13100     -2750.07500        30.09300
> 2018 12 17 07 30 54.9997060  0 20
G10  21185834.59000   -717201.22500     -4104.67700        32.35600  21185842.98800   -869615.92600     -3065.18700        24.93400
G12  22064874.34500   -607103.59800     -3495.00800        35.90300         0.00000         0.00000         0.00000         0.00000
G14  21419872.67000     23213.68800        88.41500        37.09700         0.00000         0.00000         0.00000         0.00000
G20  23164405.75500   -923676.18100     -5303.67100        28.76000         0.00000         0.00000         0.00000         0.00000
G22  25173187.60500    104738.23600      1461.33100        23.03000         0.00000         0.00000         0.00000         0.00000
G25  20970619.28300   -227815.00300     -1381.51100        39.23700  20970621.97900   -270530.85900     -1031.63700        37.29100
G31  21834983.59700    125878.21700       654.04100        35.48800         0.00000         0.00000         0.00000         0.00000
G32  20542733.60100   -140008.39300      -850.87300        36.42600  20542732.70200   -165292.25000      -635.35800        32.76500
R06  21589329.76200   -855309.44800     -5087.21300        27.21200
R09  19280244.60700   -443499.53800     -2626.88800        34.99200
R16  22934733.25700   -982653.36600     -5680.55200        29.03300
R07  19197140.63600   -294473.53800     -1776.73000        34.87900
R08  21068824.39700    285511.22600      1592.72300        26.96500
C04  39144602.89500   -126419.19900     -1611.84500        35.90000
C06  36008921.28100  -1618447.51400     -1563.36200        30.65100
E01  26285907.48300     23092.18000      1165.22400        29.30000  26285936.56400     35583.01100       870.13000        30.22400
E07  28770349.04400   -571969.98410     -4268.28800         7.00000  28770416.49300  -1432577.38510     -3164.87000         7.50300
E19  23352925.14700   -135359.93900     -1002.53600        29.33100  23352925.44800   -118457.24100      -748.69400        26.14600
E21  23515216.89200   -103523.58900      -998.39800        32.94600  23515215.39500    -95687.87100      -745.55600        28.38800
E27  24948455.08400   -397247.03900     -3683.03700        35.04400  24948461.07900   -333298.38800     -2750.25700        29.91900
> 2018 12 17 07 30 55.9997050  0 20
G10  21186257.87100   -721306.66900     -4105.44400        32.67600  21186266.26400   -872681.72000     -3065.79500        24.35500
G12  22065181.90500   -610599.60800     -3496.01000        35.90600         0.00000         0.00000         0.00000         0.00000
G14  21419496.40400     23301.60500        87.91700        37.02100         0.00000         0.00000         0.00000         0.00000
G20  23165058.37500   -928980.27400     -5304.09300        29.07800         0.00000         0.00000         0.00000         0.00000
G22  25172552.31600    106198.47610      1458.16800        21.95100         0.00000         0.00010         0.00000         0.00000
G25  20970526.02000   -229197.52200     -1382.51900        39.42700  20970527.51700   -271563.28200     -1032.42300        37.36900
G31  21834508.99500    126531.67200       653.45500        35.36600         0.00000         0.00000         0.00000         0.00000
G32  20542538.11100   -140859.90200      -851.51000        36.38500  20542537.81000   -165928.09200      -635.84200        32.60600
R06  21589949.40200   -860397.32400     -5087.87700        26.79400
R09  19280388.47900   -446127.38200     -2627.84400        35.27800
R16  22935428.14600   -988334.21400     -5680.84800        28.86700
R07  19197119.92300   -296251.27100     -1777.73300        35.03200
R08  21068170.22300    287103.14200      1591.91600        26.77500
C04  39144554.60200   -128031.32200     -1612.12300        35.91300
C06  36008865.19100  -1620011.13300     -1563.62000        30.50500
E01  26285329.45800     24256.93100      1164.75100        29.24500  26285357.33900     36452.78400       869.77300        30.28500
E07  28770804.09700   -576240.22310     -4268.29600         7.55600  28770861.65700  -1435755.99210     -3157.57200         7.00000
E19  23352756.03700   -136363.15300     -1002.57500        29.47000  23352757.83400   -119206.31300      -749.07200        25.86800
E21  23515047.48500   -104522.68600      -999.09600        33.11400  23515048.38400    -96433.99100      -746.12000        28.26400
E27  24948797.72000   -400930.62000     -3683.58000        34.98200  24948805.21400   -336049.15800     -2750.76900        29.94400
> 2018 12 17 07 30 56.9997030  0 20
G10  21186683.25000   -725412.82100     -4106.15200        33.10900  21186689.24500   -875747.93700     -3066.21700        24.10600
G12  22065487.66300   -614096.26400     -3496.65700        35.92900         0.00000         0.00000         0.00000         0.00000
G14  21419119.53600     23389.16600        87.56100        37.19400         0.00000         0.00000         0.00000         0.00000
G20  23165710.99600   -934284.74000     -5304.46500        28.50700         0.00000         0.00000         0.00000         0.00000
G22  25171907.43500    107659.81410      1467.37500        21.06500         0.00000         0.00010         0.00000         0.00000
G25  20970430.05700   -230580.88400     -1383.36100        39.46200  20970433.65600   -272596.33300     -1033.05000        37.50300
G31  21834027.50000    127184.61300       652.94100        35.45900         0.00000         0.00000         0.00000         0.00000
G32  20542344.71400   -141711.91600      -852.01400        36.50900  20542342.01800   -166564.45600      -636.36400        32.60300
R06  21590551.95800   -865485.80100     -5088.47600        26.89400
R09  19280523.95400   -448756.08400     -2628.70200        35.24000
R16  22936132.03100   -994015.43000     -5681.21700        28.36800
R07  19197083.02400   -298029.88400     -1778.61200        34.77600
R08  21067498.35900    288694.77210      1591.58000        26.29600
C04  39144507.20700   -129643.60500     -1612.28300        35.82500
C06  36008807.90700  -1621574.98600     -1563.85200        30.56200
E01  26284749.93200     25421.32600      1164.39500        29.43900  26284777.81300     37322.30700       869.52400        30.66100
E07  28771258.55800   -580510.07910     -4270.23900         7.00000  28771323.61200  -1438933.07510     -3170.73900         7.00000
E19  23352595.32000   -137365.13800     -1004.01500        29.42300  23352592.02200   -119955.71200      -749.40000        26.12900
E21  23514880.46900   -105522.40900      -999.72400        33.38300  23514880.77000    -97180.48600      -746.49500        28.24500
E27  24949140.95200   -404614.65100     -3684.03100        34.99300  24949148.44700   -338800.20000     -2751.04300        30.13200
> 2018 12 17 07 30 57.9997020  0 20
G10  21187184.60000   -729519.59410     -4106.77300        33.76200  21187184.90100   -878814.72210     -3067.10300        24.34500
G12  22065869.40000   -617593.86500     -3497.60000        35.89600         0.00000         0.00000         0.00000         0.00000
G14  21418819.84100     23476.39800        87.23300        37.01000         0.00000         0.00000         0.00000         0.00000
G20  23166435.09300   -939589.57200     -5304.83200        28.74500         0.00000         0.00000         0.00000         0.00000
G22  25171326.53400    109131.86910      1466.95700        19.42200         0.00000         0.00010         0.00000         0.00000
G25  20970410.96700   -231965.25300     -1384.36900        39.42700  20970410.67000   -273630.04000     -1033.70700        37.45300
G31  21833626.17500    127836.96000       652.34600        35.32300         0.00000         0.00000         0.00000         0.00000
G32  20542220.99600   -142564.44800      -852.53200        36.60800  20542218.60100   -167201.03600      -636.58000        32.66400
R06  21591204.10300   -870574.83400     -5089.03300        26.82200
R09  19280728.21300   -451385.69200     -2629.60800        35.37500
R16  22936899.89800   -999696.79700     -5681.36700        28.07900
R07  19197124.79200   -299809.40700     -1779.52300        34.67500
R08  21066908.76400    290285.69100      1590.91800        25.70800
C04  39144530.98700   -131256.09000     -1612.48600        35.82300
C06  36008823.59000  -1623139.13000     -1564.14400        30.84900
E01  26284241.58100     26585.27700      1163.95200        29.70400  26284271.25900     38191.55700       869.24900        30.85700
E07  28771785.38900   -584780.31910     -4270.23900         7.00000  28771840.25200  -1442113.52210     -3157.05700         7.00000
E19  23352493.78600   -138369.33700     -1002.25400        29.66500  23352496.18500   -120705.58800      -749.87600        25.92800
E21  23514788.23200   -106522.68600     -1000.27700        33.24100  23514785.83700    -97927.49500      -747.01000        28.71300
E27  24949552.06600   -408299.12600     -3684.47500        35.03000  24949563.75800   -341551.58100     -2751.38100        30.09900
> 2018 12 17 07 30 58.9997010  0 20
G10  21187611.77700   -733627.23000     -4107.63600        34.80300  21187609.67800   -881882.09800     -3067.37600        24.34700
G12  22066177.85900   -621092.30300     -3498.43900        35.70800         0.00000         0.00000         0.00000         0.00000
G14  21418446.27100     23563.10600        86.70800        36.82700         0.00000         0.00000         0.00000         0.00000
G20  23167091.01200   -944894.77500     -5305.20400        28.87100         0.00000         0.00000         0.00000         0.00000
G22  25170680.45300    110600.18610      1463.58800        17.21000         0.00000         0.00010         0.00000         0.00000
G25  20970313.80800   -233350.59900     -1385.34600        39.36100  20970317.70400   -274664.56800     -1034.52800        37.40200
G31  21833139.58500    128488.69000       651.73100        35.04400         0.00000         0.00000         0.00000         0.00000
G32  20542025.80700   -143417.61800      -853.17000        36.61100  20542023.40800   -167838.12700      -637.09200        32.56300
R06  21591804.56100   -875664.73700     -5089.90400        27.09800
R09  19280868.48700   -454016.29700     -2630.60500        35.15900
R16  22937588.79300  -1005378.64700     -5681.84900        27.57500
R07  19197107.67300   -301589.99700     -1780.59000        34.63800
R08  21066230.90600    291876.03410      1590.11200        26.10300
C04  39144482.69400   -132868.87700     -1612.78700        35.87500
C06  36008766.60200  -1624703.59100     -1564.46200        30.36200
E01  26283662.65200     27748.80400      1163.52700        29.62500  26283692.33100     39060.38800       868.83200        30.62900
E07  28772241.04400   -589050.55810     -4270.23900         7.00000  28772305.80200  -1445289.41610     -3180.49500         7.00000
E19  23352335.16800   -139371.43900     -1004.05300        29.56300  23352331.87000   -121455.76700      -750.17900        26.07100
E21  23514621.82200   -107523.75700     -1001.07100        33.51300  23514619.12200    -98675.01300      -747.51700        28.77700
E27  24949896.20200   -411984.17300     -3685.04800        35.03300  24949907.89400   -344303.43300     -2751.85200        29.91200
> 2018 12 17 07 30 59.9997000  0 19
G10  21188106.52900   -737735.44800     -4108.21800        34.99700  21188105.03300   -884949.97300     -3067.87500        24.56700
G12  22066553.59700   -624591.55900     -3499.25600        35.63300         0.00000         0.00000         0.00000         0.00000
G14  21418141.78200     23649.46800        86.36300        36.81900         0.00000         0.00000         0.00000         0.00000
G20  23167813.30700   -950200.37500     -5305.59900        28.71100         0.00000         0.00000         0.00000         0.00000
G25  20970291.42000   -234736.82500     -1386.22600        39.28800  20970294.71800   -275699.71400     -1035.14600        37.23600
G31  21832736.16200    129139.90500       651.21500        34.75400         0.00000         0.00000         0.00000         0.00000
G32  20541900.89000   -144271.28100      -853.66300        36.76200  20541899.69000   -168475.65200      -637.52400        32.80300
R06  21592476.19300   -880755.11500     -5090.37700        27.65400
R09  19281076.94300   -456647.79100     -2631.49400        35.27900
R16  22938361.45800  -1011060.70100     -5682.05500        27.67500
R07  19197153.04300   -303371.45000     -1781.45300        34.37900
R08  21065647.31000    293465.91310      1590.11600        25.56500
C04  39144506.47400   -134481.81500     -1612.93700        35.67700
C06  36008782.29000  -1626268.24000     -1564.64900        30.20500
E01  26283154.30100     28911.91800      1163.11400        29.80800  26283185.17900     39928.96400       868.57600        30.76200
E07  28772767.57800   -593320.79710     -4270.23900         7.00000  28772835.33300  -1448473.45110     -3183.44800         7.00000
E19  23352238.43300   -140376.60200     -1004.79300        29.66900  23352236.33400   -122206.34900      -750.58200        25.95600
E21  23514524.48500   -108525.35300     -1001.59600        33.30400  23514523.58600    -99423.03700      -748.02400        28.67300
E27  24950309.11300   -415669.64400     -3685.47000        34.94400  24950322.90300   -347055.59400     -2752.16100        30.00200
> 2018 12 17 07 31 00.9996990  0 20
G10  21188606.68300   -741844.42800     -4108.98100        35.29200  21188601.88400   -888018.28400     -3068.31100        24.57200
G12  22066932.03100   -628091.57800     -3500.01900        35.48500         0.00000         0.00000         0.00000         0.00000
G14  21417841.18500     23735.46300        85.99400        36.56600         0.00000         0.00000         0.00000         0.00000
G20  23168540.40500   -955506.28000     -5305.90600        29.05900         0.00000         0.00000         0.00000         0.00000
G22  25169473.38700    113517.93910      1459.66900        14.15300         0.00000         0.00010         0.00000         0.00000
G25  20970270.83300   -236123.90200     -1387.07600        39.32100  20970273.83000   -276735.56900     -1035.85500        37.36800
G31  21832324.64600    129790.57900       650.67400        34.27400         0.00000         0.00000         0.00000         0.00000
G32  20541779.27000   -145125.45200      -854.17100        36.85100  20541777.17200   -169113.46600      -637.81500        32.75900
R06  21593143.32800   -885846.15800     -5091.04400        27.65100
R09  19281281.49400   -459280.05800     -2632.26700        35.19100
R16  22939120.92600  -1016742.96600     -5682.26500        26.99000
R07  19197186.71400   -305153.73500     -1782.28500        34.29200
R08  21065064.31100    295055.30810      1589.11800        26.36600
C04  39144531.45400   -136094.91100     -1613.09600        35.93500
C06  36008796.18000  -1627833.11700     -1564.87700        30.36700
E01  26282647.75200     30074.73700      1162.81900        29.63700  26282678.02800     40797.26900       868.30500        30.57500
E07  28773294.71000   -597591.03610     -4270.23900         7.00000  28773360.96400  -1451654.95510     -3188.49800         7.00000
E19  23352137.80100   -141379.05600     -1005.81400        29.73400  23352141.69700   -122957.27400      -750.92500        25.95800
E21  23514430.14900   -109527.58100     -1002.22800        33.34000  23514427.44800   -100171.38400      -748.34700        28.55100
E27  24950726.81900   -419355.56300     -3685.92000        34.85700  24950739.71100   -349808.02500     -2752.43000        30.03600
> 2018 12 17 07 31 01.9996980  0 19
G10  21189027.56500   -745954.04200     -4109.61300        35.25300  21189027.26400   -891087.27800     -3068.99400        24.24300
G12  22067236.89000   -631592.39200     -3500.81400        35.88500         0.00000         0.00000         0.00000         0.00000
G14  21417463.41800     23821.14800        85.68500        36.45500         0.00000         0.00000         0.00000         0.00000
G20  23169188.22700   -960812.47100     -5306.19000        29.08300         0.00000         0.00000         0.00000         0.00000
G25  20970178.16800   -237511.95100     -1388.04900        39.37500  20970179.66800   -277772.07900     -1036.51000        37.56000
G31  21831844.05000    130440.76400       650.18500        33.73800         0.00000         0.00000         0.00000         0.00000
G32  20541582.88100   -145980.10800      -854.65600        36.63600  20541581.97800   -169751.71200      -638.24500        32.71100
R06  21593739.58900   -890937.78610     -5092.04400        27.97400
R09  19281416.07900   -461913.22200     -2633.16300        35.24800
R16  22939823.61200  -1022425.51700     -5682.55100        27.35300
R07  19197170.19700   -306937.13500     -1783.40000        34.42700
R08  21064423.62700    296644.18700      1588.87900        26.68300
C04  39144484.05900   -137708.15600     -1613.24500        35.91500
C06  36008738.89100  -1629398.15100     -1565.03500        30.29400
E01  26282057.13200     31237.14000      1162.40300        29.62500  26282099.10400     41665.30300       868.03400        30.52400
E07  28773749.76800   -601861.27510     -4270.23900         7.00000  28773812.42800  -1454835.59410     -3183.48600         7.00000
E19  23351977.68300   -142384.69600     -1005.07500        29.65000  23351977.08500   -123708.55700      -751.28300        25.90700
E21  23514261.63600   -110530.42700     -1002.84600        33.25700  23514261.33500   -100920.29500      -748.91200        28.84300
E27  24951069.75500   -423041.93800     -3686.37500        34.71600  24951083.54500   -352560.87100     -2752.84600        30.01500
> 2018 12 17 07 31 02.9996970  0 19
G10  21189525.61600   -750064.42100     -4110.37900        35.05600  21189522.91600   -894156.65100     -3069.37300        24.93200
G12  22067619.52600   -635094.04200     -3501.64900        36.10400         0.00000         0.00000         0.00000         0.00000
G14  21417162.52400     23906.37900        85.23200        36.37400         0.00000         0.00000         0.00000         0.00000
G20  23169911.72100   -966119.06700     -5306.59600        28.89700         0.00000         0.00000         0.00000         0.00000
G25  20970154.28300   -238900.87300     -1388.92300        39.43500  20970158.48000   -278809.28500     -1037.20600        37.41200
G31  21831424.43700    131090.39400       649.63000        33.62300         0.00000         0.00000         0.00000         0.00000
G32  20541458.26500   -146835.30800      -855.20000        36.64500  20541458.86300   -170390.30700      -638.59500        32.53800
R06  21594409.42500   -896029.95800     -5092.17300        27.99100
R09  19281625.12800   -464547.30900     -2634.08700        35.14400
R16  22940596.27700  -1028108.44100     -5682.92400        27.35000
R07  19197216.46600   -308721.31400     -1784.17900        34.29500
R08  21063849.92000    298232.53500      1588.34800        27.39200
C04  39144507.54300   -139321.64700     -1613.49100        35.85000
C06  36008752.48100  -1630963.55400     -1565.40300        30.38200
E01  26281559.27300     32399.11300      1161.97300        29.35300  26281592.55000     42533.02000       867.71700        30.64100
E07  28774278.10000   -606131.51410     -4270.23900         7.00000  28774346.75300  -1458012.93510     -3191.16500         7.00000
E19  23351883.94400   -143389.63500     -1006.06500        29.71300  23351881.84600   -124460.17700      -751.62000        26.12800
E21  23514166.10100   -111533.94200     -1003.51500        33.20100  23514166.10100   -101669.62900      -749.33400        28.71400
E27  24951486.56200   -426728.76000     -3686.82200        35.02900  24951498.25800   -355314.01100     -2753.14100        30.21700
> 2018 12 17 07 31 03.9996960  0 19
G10  21190019.47000   -754175.25100     -4110.83000        34.81100  21190020.36900   -897226.45300     -3069.80100        24.76900
G12  22067997.36200   -638596.35800     -3502.31600        36.21400         0.00000         0.00000         0.00000         0.00000
G14  21416859.83300     23991.42500        85.04600        36.13800         0.00000         0.00000         0.00000         0.00000
G20  23170638.51900   -971425.87500     -5306.80800        29.16800         0.00000         0.00000         0.00000         0.00000
G25  20970138.49000   -240290.63800     -1389.76400        39.58400  20970137.59200   -279847.08800     -1037.80300        37.46400
G31  21831014.41800    131739.59000       649.19600        33.50500         0.00000         0.00000         0.00000         0.00000
G32  20541337.54400   -147690.91500      -855.60700        36.73000  20541336.04800   -171029.19200      -638.88500        32.69500
R06  21595086.75000   -901122.73900     -5092.78100        27.43800
R09  19281823.08800   -467182.10800     -2634.79900        35.08500
R16  22941381.23100  -1033791.33500     -5682.89400        27.61500
R07  19197263.63000   -310506.33300     -1785.02000        34.59500
R08  21063278.61300    299820.48400      1587.94900        28.02700
C04  39144531.32300   -140935.12800     -1613.48000        35.99600
C06  36008764.86600  -1632528.99100     -1565.43700        30.54700
E01  26281053.02500     33560.87600      1161.76300        28.83600  26281085.39900     43400.56000       867.54000        30.83100
E07  28774804.63400   -610401.75410     -4270.23900         7.00000  28774871.49000  -1461193.58910     -3245.92900         7.00000
E19  23351790.80800   -144396.61100     -1006.11100        29.83200  23351786.61100   -125212.08700      -751.91000        26.55500
E21  23514069.66700   -112537.89200     -1003.95000        32.77400  23514071.46400   -102419.27400      -749.64500        28.47900
E27  24951903.97200   -430415.92100     -3687.16100        34.82400  24951914.16700   -358067.37400     -2753.36300        30.33000
> 2018 12 17 07 31 04.9996950  0 19
G10  21190445.74900   -758286.92610     -4111.67500        34.80000  21190443.95100   -900296.85410     -3070.84200        25.33200
G12  22068306.11800   -642099.58700     -3503.22900        36.25200         0.00000         0.00000         0.00000         0.00000
G14  21416485.66500     24075.99400        84.56900        36.10900         0.00000         0.00000         0.00000         0.00000
G20  23171293.83500   -976733.07800     -5307.20300        28.86300         0.00000         0.00000         0.00000         0.00000
G25  20970044.02800   -241681.26800     -1390.63100        39.67300  20970044.02800   -280885.60800     -1038.52000        37.32700
G31  21830529.32900    132388.22700       648.63700        33.84500         0.00000         0.00000         0.00000         0.00000
G32  20541142.65200   -148547.08500      -856.17000        36.70700  20541141.45200   -171668.58500      -639.39300        32.50600
R06  21595669.52200   -906216.10600     -5093.36700        26.89400
R09  19281965.16300   -469817.83200     -2635.72300        34.56300
R16  22942099.50400  -1039474.58600     -5683.25000        28.45200
R07  19197237.21900   -312292.25800     -1785.92500        34.74400
R08  21062622.93900    301407.89900      1587.41400        28.15000
C04  39144483.62700   -142548.85400     -1613.72600        35.97300
C06  36008710.27700  -1634094.68700     -1565.69600        30.48900
E01  26280474.69400     34722.20500      1161.32900        28.92800  26280507.37400     44267.74100       867.18100        30.87100
E07  28775260.59100   -614673.93810     -4270.23900         7.00000  28775326.84500  -1464386.89110     -3180.49500         8.54800
E19  23351625.29700   -145400.56300     -1005.60800        29.50300  23351620.49800   -125964.34600      -752.25900        25.90500
E21  23513905.35100   -113542.46400     -1004.57200        32.74800  23513905.94900   -103169.53100      -750.25700        28.60000
E27  24952248.70500   -434103.57400     -3687.65200        34.79500  24952258.59900   -360821.15200     -2753.77800        30.44200
> 2018 12 17 07 31 05.9996940  0 19
G10  21190943.80000   -762399.26500     -4112.33800        35.16400  21190940.80300   -903367.77400     -3070.92000        24.97300
G12  22068682.15700   -645603.58500     -3503.99800        36.34000         0.00000         0.00000         0.00000         0.00000
G14  21416185.67000     24160.20700        84.21400        35.84700         0.00000         0.00000         0.00000         0.00000
G20  23172019.43300   -982040.68700     -5307.60900        29.00100         0.00000         0.00000         0.00000         0.00000
G25  20970022.84300   -243072.92900     -1391.66000        39.78800  20970022.54200   -281924.76900     -1039.16100        37.51600
G31  21830115.71000    133036.29500       648.06800        34.73100         0.00000         0.00000         0.00000         0.00000
G32  20541018.93400   -149403.82200      -856.73700        36.65900  20541018.33600   -172308.34300      -639.75700        32.71700
R06  21596335.75400   -911310.12800     -5094.02200        26.47800
R09  19282168.82000   -472454.53300     -2636.70100        34.25400
R16  22942886.25600  -1045158.18700     -5683.60200        28.94700
R07  19197284.98500   -314079.15400     -1786.89600        34.78500
R08  21062050.43200    302994.81000      1586.91200        28.35000
C04  39144507.40700   -144162.76700     -1613.91200        35.89400
C06  36008726.56300  -1635660.66600     -1565.97900        30.50200
E01  26279971.44300     35883.10200      1160.89600        29.23000  26279999.62000     45134.72500       866.98300        30.86000
E07  28775787.72200   -618946.12810     -4270.24700         7.00000  28775852.77700  -1467565.85310     -3181.00900         7.00000
E19  23351525.86200   -146408.40700     -1006.34000        29.33600  23351528.56200   -126716.96200      -752.61700        26.15900
E21  23513807.41600   -114547.72200     -1005.25800        32.55700  23513810.41300   -103920.21000      -750.67800        28.61400
E27  24952667.61500   -437791.67100     -3688.09700        34.74800  24952674.50800   -363575.27100     -2754.11800        30.29300
> 2018 12 17 07 31 06.9996930  0 19
G10  21191444.25400   -766512.24710     -4112.98200        35.70400  21191438.25600   -906439.05110     -3071.07600        24.75000
G12  22069066.58900   -649108.35500     -3504.77000        36.62700         0.00000         0.00000         0.00000         0.00000
G14  21415878.78200     24244.11700        83.91000        36.04700         0.00000         0.00000         0.00000         0.00000
G20  23172743.53000   -987348.48800     -5307.80100        29.27000         0.00000         0.00000         0.00000         0.00000
G25  20970001.65400   -244465.35700     -1392.42800        39.80400  20970002.55300   -282964.61400     -1039.84500        37.54600
G31  21829701.79600    133683.92800       647.63300        35.01400         0.00000         0.00000         0.00000         0.00000
G32  20540898.51400   -150260.92200      -857.09900        36.44100  20540895.81800   -172948.40600      -640.06400        32.78900
R06  21597006.48800   -916404.79400     -5094.66600        26.59500
R09  19282368.28100   -475091.93700     -2637.40400        34.41700
R16  22943699.99400  -1050841.96900     -5683.78200        29.72300
R07  19197340.24100   -315866.89600     -1787.74200        34.78300
R08  21061459.94300    304581.33000      1586.51900        28.47900
C04  39144531.79000   -145776.84700     -1614.08000        35.87300
C06  36008740.15200  -1637226.82300     -1566.15700        30.34800
E01  26279463.68900     37043.72200      1160.62000        29.27300  26279493.97000     46001.35700       866.63200        31.13800
E07  28776315.45600   -623217.93610     -4272.19000         7.62500  28776382.01100  -1470744.93210     -3183.77200         7.00000
E19  23351436.62100   -147414.65700     -1008.10000        29.61300  23351433.62400   -127469.93500      -752.97200        26.27300
E21  23513712.77900   -115553.54400     -1005.82100        32.94600  23513717.27700   -104671.29100      -751.08100        28.83300
E27  24953085.92300   -441480.20400     -3688.53400        34.88900  24953090.71700   -366329.68100     -2754.41100        29.96100
> 2018 12 17 07 31 07.9996920  0 19
G10  21191942.00400   -770625.93200     -4113.68500        36.14000  21191935.11200   -909511.04700     -3071.99600        24.90000
G12  22069445.92200   -652613.88000     -3505.52500        37.00800         0.00000         0.00000         0.00000         0.00000
G14  21415579.38400     24327.62000        83.50300        36.18900         0.00000         0.00000         0.00000         0.00000
G20  23173469.72500   -992656.68100     -5308.19300        29.63200         0.00000         0.00000         0.00000         0.00000
G25  20969980.76700   -245858.77200     -1393.41500        39.75600  20969981.66500   -284005.13400     -1040.52000        37.44600
G31  21829291.77700    134330.91000       646.98200        35.40100         0.00000         0.00000         0.00000         0.00000
G32  20540770.60400   -151118.67000      -857.74900        36.49600  20540772.70300   -173588.96300      -640.55700        32.89600
R06  21597665.53100   -921500.07600     -5095.28100        26.45200
R09  19282596.52100   -477730.33900     -2638.40300        34.13500
R16  22944479.54800  -1056526.08000     -5684.11100        30.30900
R07  19197384.71300   -317655.62000     -1788.72400        34.81900
R08  21060870.94500    306167.18810      1585.48200        28.54100
C04  39144555.87100   -147391.08600     -1614.24000        35.89500
C06  36008755.23800  -1638793.20200     -1566.37900        30.23800
E01  26278958.34000     38203.92800      1160.20600        28.86200  26278986.81900     46867.72700       866.37000        31.05900
E07  28776842.58800   -627490.12710     -4272.19000         7.00000  28776906.44300  -1473925.46910     -3197.20600         7.00000
E19  23351339.58500   -148423.49000     -1008.68700        29.99800  23351339.28800   -128223.24500      -753.31000        26.03300
E21  23513616.94200   -116559.99100     -1006.44700        32.40700  23513622.33900   -105422.86800      -751.57700        28.84900
E27  24953504.23100   -445169.15200     -3688.94800        35.13500  24953507.83000   -369084.44000     -2754.75900        29.96300
> 2018 12 17 07 31 08.9996910  0 19
G10  21192369.48200   -774740.16600     -4114.23400        36.53800  21192361.68700   -912583.38100     -3072.33400        25.07000
G12  22069749.58700   -656120.15800     -3506.27800        37.28800         0.00000         0.00000         0.00000         0.00000
G14  21415206.41600     24410.85300        83.23300        36.05000         0.00000         0.00000         0.00000         0.00000
G20  23174121.74400   -997965.11500     -5308.43400        30.14800         0.00000         0.00000         0.00000         0.00000
G25  20969889.30100   -247252.96800     -1394.19600        39.79900  20969889.30100   -285046.23000     -1041.09600        37.45600
G31  21828808.18300    134977.54000       646.63100        35.52400         0.00000         0.00000         0.00000         0.00000
G32  20540576.90700   -151976.81000      -858.14000        36.18600  20540579.00900   -174229.76000      -640.79700        32.56500
R06  21598261.19400   -926595.71900     -5095.64400        26.49500
R09  19282730.79600   -480369.40900     -2639.07000        34.01200
R16  22945191.22900  -1062210.32100     -5684.24100        30.38300
R07  19197368.79400   -319445.10300     -1789.48300        34.63000
R08  21060222.16800    307752.74000      1585.55200        28.52700
C04  39144508.77300   -149005.40600     -1614.32000        35.89400
C06  36008698.25000  -1640359.77600     -1566.57400        30.26700
E01  26278382.10700     39363.84500      1159.91700        28.89500  26278408.78900     47733.91200       866.18500        31.08400
E07  28777298.84600   -631762.31710     -4272.19000         7.00000  28777364.79900  -1477109.24110     -3180.49500         7.43700
E19  23351177.07100   -149429.64100     -1007.81800        29.82400  23351172.87400   -128976.87100      -753.62600        25.99000
E21  23513449.03200   -117566.94700     -1006.95700        32.29700  23513456.82800   -106174.78800      -751.92000        28.94400
E27  24953852.56300   -448858.50100     -3689.34900        35.23500  24953851.66000   -371839.44000     -2755.00000        29.94700
> 2018 12 17 07 31 09.9996900  0 19
G10  21192867.53300   -778855.07110     -4114.90500        36.19900  21192856.74100   -915656.13210     -3072.66800        25.09500
G12  22070130.42000   -659627.18300     -3507.02600        37.42300         0.00000         0.00000         0.00000         0.00000
G14  21414905.52200     24493.73400        82.88100        36.03800         0.00000         0.00000         0.00000         0.00000
G20  23174847.04000  -1003273.87700     -5308.76100        30.51200         0.00000         0.00000         0.00000         0.00000
G25  20969869.01500   -248647.98900     -1395.02100        39.79300  20969869.31200   -286087.95300     -1041.72300        37.55900
G31  21828391.57200    135623.67100       646.13100        35.76800         0.00000         0.00000         0.00000         0.00000
G32  20540450.49300   -152835.37800      -858.56800        36.25400  20540457.08900   -174870.93300      -641.17200        32.72900
R06  21598926.52700   -931692.09900     -5096.38000        26.22000
R09  19282942.85100   -483009.37300     -2639.96400        33.63600
R16  22945971.08800  -1067894.79700     -5684.47600        30.79600
R07  19197420.45500   -321235.47100     -1790.36800        34.43300
R08  21059641.56900    309337.81900      1585.07900        28.92300
C04  39144532.85400   -150619.86100     -1614.45500        36.00800
C06  36008713.03900  -1641926.43900     -1566.66300        30.53200
E01  26277876.45700     40523.47500      1159.63000        28.62400  26277902.23900     48599.84400       865.93200        31.17100
E07  28777825.97800   -636034.50710     -4272.19000         7.00000  28777885.03800  -1480288.11610     -3182.62900         7.00000
E19  23351081.23400   -150439.23100     -1008.21500        29.89700  23351079.73800   -129730.75800      -753.88700        25.71800
E21  23513358.59200   -118574.48600     -1007.53900        31.99200  23513361.89000   -106927.15800      -752.37000        28.93000
E27  24954270.87100   -452548.21900     -3689.71800        35.38700  24954267.57300   -374594.76800     -2755.32800        29.90800
> 2018 12 17 07 31 10.9996890  0 19
G10  21193360.19200   -782970.68200     -4115.61100        35.95900  21193355.69500   -918729.55000     -3073.41800        24.88100
G12  22070511.55500   -663135.02300     -3507.83900        37.46100         0.00000         0.00000         0.00000         0.00000
G14  21414604.62800     24576.29900        82.56500        36.24500         0.00000         0.00000         0.00000         0.00000
G20  23175569.33500  -1008582.95500     -5309.07800        30.62300         0.00000         0.00000         0.00000         0.00000
G25  20969847.82600   -250043.96500     -1395.97600        39.94100  20969849.32700   -287130.44200     -1042.48800        37.59600
G31  21827978.55600    136269.20900       645.53700        35.89800         0.00000         0.00000         0.00000         0.00000
G32  20540327.97500   -153694.50800      -859.13000        35.98800  20540334.57100   -175512.45400      -641.52100        32.80400
R06  21599598.16000   -936788.97500     -5096.87600        26.07900
R09  19283135.71500   -485650.21600     -2640.84300        33.59200
R16  22946746.14800  -1073579.50200     -5684.70500        30.62500
R07  19197462.22600   -323026.73200     -1791.26100        34.29000
R08  21059053.47000    310922.35400      1584.53500        28.99100
C04  39144557.53800   -152234.49900     -1614.63800        35.94200
C06  36008728.72600  -1643493.38800     -1566.94900        30.60700
E01  26277372.00200     41682.61300      1159.13800        28.38900  26277395.08800     49465.49500       865.65200        31.27800
E07  28778354.91100   -640306.69810     -4272.19000         7.00000  28778422.06400  -1483465.28410     -3186.21100         7.00000
E19  23350986.59800   -151445.75600     -1009.73200        30.02100  23350986.59800   -130485.05900      -754.30100        25.82500
E21  23513259.45700   -119582.57700     -1008.09100        32.31200  23513267.85500   -107680.03100      -752.87300        28.92800
E27  24954688.28000   -456238.40700     -3690.18800        35.46200  24954683.48200   -377350.49900     -2755.73100        30.12600
> 2018 12 17 07 31 11.9996880  0 19
G10  21193787.36900   -787086.89100     -4116.20900        36.20800  21193781.97300   -921803.37700     -3073.82700        25.94600
G12  22070823.30700   -666643.58900     -3508.56700        37.40700         0.00000         0.00000         0.00000         0.00000
G14  21414230.75700     24658.49300        82.19400        36.37400         0.00000         0.00000         0.00000         0.00000
G20  23176219.56100  -1013892.36700     -5309.41300        30.55000         0.00000         0.00000         0.00000         0.00000
G25  20969756.06000   -251440.82200     -1396.85700        39.80800  20969756.96300   -288173.54000     -1043.09900        37.66300
G31  21827501.85500    136914.29200       645.08400        36.16600         0.00000         0.00000         0.00000         0.00000
G32  20540136.38000   -154554.11900      -859.61100        36.23500  20540140.28000   -176154.34200      -641.88800        32.91700
R06  21600193.22100   -941886.54500     -5097.57100        26.11700
R09  19283276.29000   -488291.89200     -2641.67600        33.27800
R16  22947455.43000  -1079264.43700     -5684.93400        30.79900
R07  19197442.11100   -324818.94100     -1792.20900        34.29200
R08  21058407.09200    312506.42400      1584.07100        28.99800
C04  39144509.84200   -153849.30100     -1614.80200        36.18000
C06  36008672.03500  -1645060.54000     -1567.15200        30.35000
E01  26276803.56900     42841.44900      1158.83600        28.50000  26276817.96100     50330.79700       865.30200        31.32500
E07  28778810.56700   -644578.88810     -4272.19000         7.00000  28778875.01900  -1486645.84910     -3208.21900         8.93700
E19  23350824.38500   -152456.34400     -1010.49400        29.82000  23350821.98500   -131239.69900      -754.64000        26.14200
E21  23513095.44300   -120591.33400     -1008.75700        32.26800  23513103.54000   -108433.28700      -753.25600        28.89800
E27  24955036.30800   -459929.02200     -3690.61500        35.49500  24955029.11400   -380106.39800     -2755.90000        29.95400
> 2018 12 17 07 31 12.9996870  0 19
G10  21194216.34400   -791203.67010     -4116.78000        36.54800  21194206.75000   -924877.47210     -3074.10400        25.25700
G12  22071132.36800   -670152.85000     -3509.26100        37.69600         0.00000         0.00000         0.00000         0.00000
G14  21413858.98900     24740.47500        81.98200        36.58000         0.00000         0.00000         0.00000         0.00000
G20  23176871.88000  -1019201.92200     -5309.55500        31.00300         0.00000         0.00000         0.00000         0.00000
G25  20969665.19700   -252838.40500     -1397.58200        39.72800  20969666.09500   -289217.16100     -1043.62100        37.55600
G31  21827021.56000    137558.96500       644.67200        36.48000         0.00000         0.00000         0.00000         0.00000
G32  20539941.48800   -155414.08200      -859.96300        36.44400  20539946.28600   -176796.57600      -642.23400        32.76900
R06  21600774.19100   -946984.44810     -5097.83800        25.30600
R09  19283407.87300   -490934.21500     -2642.32400        33.24000
R16  22948154.21900  -1084949.47000     -5685.03300        30.57500
R07  19197403.41000   -326611.85200     -1792.91100        33.77800
R08  21057757.71300    314090.10910      1583.49800        28.98000
C04  39144462.44700   -155464.09700     -1614.79600        36.01300
C06  36008615.04700  -1646627.78800     -1567.24700        30.53100
E01  26276222.54300     44000.10000      1158.65100        28.49400  26276239.63100     51196.05100       865.25400        31.38700
E07  28779265.92200   -648852.05110     -4272.19000         7.00000  28779332.47700  -1489831.80110     -3180.49500         7.00000
E19  23350658.56800   -153463.55700     -1009.64800        30.22700  23350655.27000   -131994.45700      -754.75800        25.81400
E21  23512929.33000   -121600.49700     -1009.16400        32.46500  23512937.12600   -109186.91300      -753.62600        28.84100
E27  24955381.94400   -463619.91200     -3690.88900        35.53500  24955373.55000   -382862.58400     -2756.18500        30.06600
> 2018 12 17 07 31 13.9996860  0 19
G10  21194712.29600   -795320.98400     -4117.31400        36.78700  21194704.20400   -927952.15300     -3074.68100        25.47700
G12  22071515.30000   -673662.73500     -3509.88400        37.79800         0.00000         0.00000         0.00000         0.00000
G14  21413561.68900     24822.25200        81.77700        36.59900         0.00000         0.00000         0.00000         0.00000
G20  23177594.47600  -1024511.67500     -5309.75300        31.57400         0.00000         0.00000         0.00000         0.00000
G25  20969646.40700   -254236.78500     -1398.38000        39.72900  20969646.10600   -290261.43400     -1044.27400        37.69500
G31  21826614.83900    138203.24700       644.28200        36.76100         0.00000         0.00000         0.00000         0.00000
G32  20539821.67000   -156274.43300      -860.35000        36.72100  20539824.66700   -177438.99900      -642.42200        32.77600
R06  21601454.21700   -952082.88500     -5098.43700        25.06200
R09  19283616.62100   -493577.29600     -2643.08100        32.95500
R16  22948940.07200  -1090634.68100     -5685.21200        30.49400
R07  19197455.67400   -328405.52100     -1793.66900        33.39700
R08  21057180.40800    315673.53100      1583.42300        29.30500
C04  39144486.52800   -157079.45200     -1615.35500        35.98800
C06  36008629.53500  -1648195.00000     -1567.21200        30.37600
E01  26275717.79100     45158.46200      1158.36200        28.78900  26275733.08100     52061.06400       865.01300        31.28100
E07  28779793.05300   -653125.21710     -4272.19800         7.00000  28779848.21800  -1493012.29610     -3180.49500         7.00000
E19  23350563.33400   -154474.78100     -1010.64600        30.18500  23350562.43500   -132749.57700      -755.12000        26.00000
E21  23512838.59300   -122610.09700     -1009.60000        32.51500  23512843.68800   -109940.84800      -753.93400        28.45100
E27  24955802.64700   -467311.08500     -3691.17400        35.75900  24955790.05700   -385618.98300     -2756.39900        29.81900
> 2018 12 17 07 31 14.9996850  0 19
G10  21195140.07500   -799439.00810     -4118.02400        36.96100  21195134.07700   -931027.32410     -3075.42200        25.57700
G12  22071825.55600   -677173.50300     -3510.76900        37.85700         0.00000         0.00000         0.00000         0.00000
G14  21413185.72400     24903.61000        81.35800        36.76200         0.00000         0.00000         0.00000         0.00000
G20  23178245.59600  -1029821.82900     -5310.15500        31.74500         0.00000         0.00000         0.00000         0.00000
G25  20969554.34400   -255636.07300     -1399.28800        39.74800  20969555.24300   -291306.33100     -1044.89600        37.64200
G31  21826137.24400    138847.01900       643.77200        36.94500         0.00000         0.00000         0.00000         0.00000
G32  20539629.17200   -157135.29600      -860.86300        36.95400  20539630.37200   -178081.81600      -642.81700        32.89200
R06  21602052.57600   -957181.98200     -5099.09700        24.84100
R09  19283759.59500   -496221.37200     -2644.07600        32.74000
R16  22949641.85900  -1096320.17700     -5685.49500        30.11700
R07  19197438.55500   -330200.18800     -1794.66700        33.20200
R08  21056524.73800    317256.25700      1582.72600        29.33100
C04  39144439.13300   -158694.50300     -1615.05100        35.92200
C06  36008573.44600  -1649762.58800     -1567.58800        30.28400
E01  26275143.96200     46316.48500      1158.02400        28.72700  26275155.65400     52925.80900       864.74500        31.29300
E07  28780250.51100   -657399.16510     -4273.16600         7.00000  28780306.27300  -1496192.97310     -3180.49500         7.00000
E19  23350403.51600   -155483.84600     -1011.56100        30.16900  23350396.92000   -133504.97000      -755.39300        25.88200
E21  23512673.37900   -123620.37700     -1010.27900        32.85200  23512679.37300   -110695.23700      -754.38900        28.71200
E27  24956147.68100   -471002.81400     -3691.72900        35.69200  24956135.99000   -388375.76200     -2756.77900        29.86500
> 2018 12 17 07 31 15.9996840  0 19
G10  21195640.52600   -803557.74710     -4118.74000        37.23800  21195629.13100   -934102.97210     -3075.89200        25.13200
G12  22072208.19100   -680684.98600     -3511.48200        37.80800         0.00000         0.00000         0.00000         0.00000
G14  21412885.13100     24984.61200        81.00200        36.81800         0.00000         0.00000         0.00000         0.00000
G20  23178970.59600  -1035132.30700     -5310.47800        31.75700         0.00000         0.00000         0.00000         0.00000
G25  20969535.25400   -257036.21200     -1400.13900        39.83300  20969535.55500   -292351.90300     -1045.57300        37.75100
G31  21825730.52300    139490.21800       643.19900        37.29800         0.00000         0.00000         0.00000         0.00000
G32  20539508.15500   -157996.66400      -861.36800        37.32600  20539509.05400   -178725.08100      -643.26500        32.86500
R06  21602714.61600   -962281.67300     -5099.69100        24.98700
R09  19283959.05600   -498866.23400     -2644.86200        32.69900
R16  22950407.92800  -1102005.87600     -5685.69900        29.91500
R07  19197489.61500   -331995.81400     -1795.62600        32.92200
R08  21055945.33400    318838.58400      1582.32700        29.14900
C04  39144463.81200   -160309.20900     -1614.70600        35.89400
C06  36008589.73500  -1651330.34500     -1567.75800        30.65700
E01  26274650.30000     47474.03200      1157.54600        28.96500  26274649.40100     53790.21900       864.41000        31.21100
E07  28780777.94400   -661673.30710     -4273.17300         7.00000  28780823.21400  -1499355.14610     -3177.31200         7.00000
E19  23350307.08200   -156496.04300     -1012.40700        30.16800  23350305.28000   -134260.78600      -755.81600        26.51900
E21  23512581.14100   -124631.32900     -1010.95200        32.64400  23512584.73600   -111450.15500      -754.91800        28.84900
E27  24956566.29000   -474694.92700     -3692.11200        35.85400  24956552.50000   -391132.87900     -2757.11700        29.77200
> 2018 12 17 07 31 16.9996830  0 19
G10  21196137.37700   -807677.22200     -4119.47400        37.06500  21196128.08500   -937179.23400     -3076.26200        25.34900
G12  22072587.52400   -684197.44200     -3512.45600        37.42000         0.00000         0.00000         0.00000         0.00000
G14  21412588.13300     25065.14300        80.53100        36.98600         0.00000         0.00000         0.00000         0.00000
G20  23179697.38900  -1040443.21100     -5310.90300        31.43500         0.00000         0.00000         0.00000         0.00000
G25  20969515.86700   -258437.43600     -1401.22400        39.77000  20969516.46400   -293398.27000     -1046.36700        37.62400
G31  21825327.69800    140132.75300       642.53500        37.54000         0.00000         0.00000         0.00000         0.00000
G32  20539388.33800   -158858.72700      -862.06300        37.37800  20539387.13800   -179368.82600      -643.74500        32.82200
R06  21603389.24600   -967382.08710     -5100.13800        24.76000
R09  19284174.10300   -501512.01100     -2645.77700        32.47200
R16  22951167.69700  -1107691.99200     -5686.11600        29.64200
R07  19197539.47900   -333792.40900     -1796.59500        33.10800
R08  21055359.63900    320420.30200      1581.71800        28.93100
C04  39144488.19500   -161924.69200     -1615.48300        35.95300
C06  36008605.72000  -1652898.45000     -1568.10400        30.68000
E01  26274147.94300     48631.17200      1157.14000        29.05500  26274143.74600     54654.29800       864.07800        31.35100
E07  28781305.37700   -665948.23110     -4274.14100         7.00000  28781369.53200  -1502537.36110     -3138.36500         9.28700
E19  23350214.84000   -157506.77400     -1011.85000        30.17800  23350211.24500   -135016.98400      -756.19700        26.25100
E21  23512489.50100   -125642.89400     -1011.56500        32.70100  23512491.29900   -112205.60900      -755.45300        29.11500
E27  24956983.39900   -478387.58800     -3692.66100        35.88900  24956968.71000   -393890.39300     -2757.51400        29.81200
> 2018 12 17 07 31 17.9996820  0 20
G01  24852151.76900   -353206.06610     -1865.08300        32.92900  24851983.58900   -408989.05210     -1398.80500        19.16300
G10  21196632.43500   -811797.26600     -4120.04400        36.75700  21196626.13600   -940255.87700     -3076.64300        25.50600
G12  22072971.35500   -687710.59700     -3513.15500        37.37800         0.00000         0.00000         0.00000         0.00000
G14  21412285.44100     25145.37300        80.23000        36.94400         0.00000         0.00000         0.00000         0.00000
G20  23180422.08400  -1045754.37000     -5311.15900        31.69800         0.00000         0.00000         0.00000         0.00000
G25  20969497.97600   -259839.47300     -1402.03700        39.86700  20969497.37800   -294445.25400     -1046.98400        37.61000
G31  21824917.98000    140774.89600       642.14300        37.76400         0.00000         0.00000         0.00000         0.00000
G32  20539264.92100   -159721.13200      -862.40500        37.68200  20539265.21700   -180012.82600      -644.00000        32.97300
R06  21604063.87500   -972483.01210     -5099.86900        24.00800
R09  19284381.96200   -504158.63300     -2646.62100        32.74600
R16  22951943.05800  -1113378.19400     -5686.20200        29.37700
R07  19197594.73900   -335589.76400     -1797.35600        33.02400
R08  21054784.43200    322001.52500      1581.22400        29.05200
C04  39144513.17500   -163540.28700     -1615.59500        36.04000
C06  36008621.10700  -1654466.70600     -1568.25600        30.49100
E01  26273649.78700     49787.97000      1156.79800        29.37000  26273637.49800     55518.19200       863.89400        31.44100
E07  28781833.11000   -670223.34810     -4274.14900         7.00000  28781894.26500  -1505717.83810     -3133.18200         7.38000
E19  23350123.50100   -158519.28900     -1012.83400        30.28800  23350118.10500   -135773.57400      -756.59000        25.97200
E21  23512399.66300   -126655.00000     -1012.10600        32.89300  23512397.86100   -112961.33500      -755.72700        29.06100
E27  24957399.90900   -482080.62100     -3693.03200        35.70600  24957386.11900   -396648.17200     -2757.77900        30.14500
> 2018 12 17 07 31 18.9996810  0 20
G01  24852142.74800   -355071.95510     -1865.88900        34.09800  24851976.66500   -410391.86110     -1394.09800        18.99800
G10  21197059.90900   -815918.08000     -4120.81400        36.55900  21197051.81600   -943333.12100     -3077.24300        25.65400
G12  22073280.11500   -691224.53100     -3513.93500        37.17700         0.00000         0.00000         0.00000         0.00000
G14  21411911.57100     25225.23100        79.85800        36.75200         0.00000         0.00000         0.00000         0.00000
G20  23181073.80600  -1051065.86800     -5311.49800        31.66300         0.00000         0.00000         0.00000         0.00000
G25  20969407.71000   -261242.42700     -1402.95500        39.84600  20969407.11200   -295492.90200     -1047.64800        37.74300
G31  21824440.68100    141416.44500       641.54900        37.93600         0.00000         0.00000         0.00000         0.00000
G32  20539075.12400   -160584.14100      -863.00900        37.96200  20539072.72400   -180657.33100      -644.50500        32.95000
R06  21604633.15400   -977584.62310     -5099.45400        23.87700
R09  19284526.13100   -506806.18000     -2647.54700        32.80500
R16  22952650.54300  -1119064.67600     -5686.48200        29.21100
R07  19197558.13700   -337388.07900     -1798.31500        32.83100
R08  21054120.66900    323582.25400      1580.72900        28.41100
C04  39144465.78000   -165156.06300     -1615.77600        35.89100
C06  36008565.01700  -1656035.20100     -1568.49500        30.56500
E01  26273075.95900     50944.36400      1156.39400        29.54400  26273059.16700     56381.76500       863.57300        31.45400
E07  28782289.96600   -674498.27410     -4275.11700         7.00000  28782356.51700  -1508889.01110     -3180.49500         7.00000
E19  23349951.99200   -159531.28900     -1013.52000        30.27200  23349954.09400   -136530.43000      -756.85600        26.26300
E21  23512234.14800   -127667.81700     -1012.81700        32.76400  23512234.14800   -113717.65300      -756.31800        28.96400
E27  24957745.24000   -485774.12900     -3693.50900        35.50700  24957731.15300   -399406.33200     -2758.16000        29.76400
> 2018 12 17 07 31 19.9996800  0 20
G01  24852210.90000   -356938.62410     -1866.66900        35.20900  24852044.21500   -411785.92010     -1395.01000        18.36000
G10  21197557.66300   -820039.52800     -4121.44800        36.41700  21197550.76600   -946410.80800     -3077.68700        25.63700
G12  22073666.64600   -694739.24900     -3514.71800        37.17000         0.00000         0.00000         0.00000         0.00000
G14  21411608.57800     25304.72800        79.49700        36.68000         0.00000         0.00000         0.00000         0.00000
G20  23181796.10500  -1056377.67600     -5311.80800        31.64200         0.00000         0.00000         0.00000         0.00000
G25  20969387.72100   -262646.26400     -1403.83700        39.88100  20969388.32300   -296541.26000     -1048.35800        37.88500
G31  21824035.46100    142057.51100       641.06600        38.06100         0.00000         0.00000         0.00000         0.00000
G32  20538952.60600   -161447.61600      -863.47500        38.04900  20538950.50700   -181302.10100      -644.77100        32.82200
R06  21605316.77900   -982686.76010     -5099.00300        24.03700
R09  19284739.08000   -509454.57200     -2648.39200        33.04200
R16  22953433.09800  -1124751.42100     -5686.74500        28.44300
R07  19197607.70000   -339187.32600     -1799.24700        32.65300
R08  21053545.16100    325162.55900      1580.30500        28.60800
C04  39144490.16200   -166772.00700     -1615.94400        35.94500
C06  36008578.60700  -1657603.83400     -1568.63300        30.71100
E01  26272575.70000     52100.45800      1156.09400        29.86700  26272553.81800     57245.04300       863.27800        31.56700
E07  28782817.69500   -678773.39210     -4275.11700         7.00000  28782881.25300  -1512069.50510     -3180.49500         7.00000
E19  23349860.95400   -160544.88600     -1013.35200        30.25000  23349859.75400   -137287.64400      -757.21400        25.86300
E21  23512142.50800   -128681.17500     -1013.35800        32.78100  23512140.41000   -114474.38700      -756.73400        28.74500
E27  24958162.64900   -489468.05200     -3693.92200        35.46400  24958148.55800   -402164.74900     -2758.41700        29.89800
> 2018 12 17 07 31 20.9996790  0 20
G01  24852273.05300   -358806.11510     -1867.49000        35.45800  24852113.26600   -413180.35010     -1393.28300        18.18000
G10  21198054.81600   -824161.73310     -4122.20500        36.24400  21198048.82200   -949489.04610     -3078.41200        25.57400
G12  22074051.07800   -698254.84300     -3515.59400        37.27300         0.00000         0.00000         0.00000         0.00000
G14  21411308.88400     25383.81600        79.08800        36.43500         0.00000         0.00000         0.00000         0.00000
G20  23182521.69800  -1061689.89700     -5312.22100        31.31000         0.00000         0.00000         0.00000         0.00000
G25  20969370.73300   -264051.06800     -1404.80300        39.91100  20969368.93100   -297590.26000     -1049.00000        37.69400
G31  21823632.63600    142697.97100       640.46000        37.87900         0.00000         0.00000         0.00000         0.00000
G32  20538833.38600   -162311.65400      -864.03800        38.25900  20538829.18900   -181947.33600      -645.23500        32.82300
R06  21606001.30300   -987789.56600     -5102.80600        24.54000
R09  19284960.12700   -512103.89700     -2649.32400        33.24600
R16  22954201.56200  -1130438.48800     -5687.06700        28.74900
R07  19197667.75500   -340987.54700     -1800.22100        33.07000
R08  21052963.96400    326742.17200      1579.61300        28.06300
C04  39144514.23900   -168388.68500     -1616.67800        36.06500
C06  36008595.19300  -1659172.88200     -1569.04700        30.53800
E01  26272066.45000     53256.09500      1155.63700        29.88700  26272049.66300     58108.01500       862.97200        31.18100
E07  28783346.02700   -683048.50910     -4275.11700         7.00000  28783411.98400  -1515250.00010     -3180.49500         7.00000
E19  23349773.21400   -161556.29000     -1014.16000        30.22700  23349769.91600   -138045.19700      -757.55300        25.56900
E21  23512049.07100   -129695.14600     -1013.97100        33.02000  23512046.97300   -115231.61000      -757.22300        28.69700
E27  24958580.36000   -493162.44700     -3694.39500        35.71600  24958566.57000   -404923.59400     -2758.84500        29.99500
> 2018 12 17 07 31 21.9996770  0 20
G01  24852259.23700   -360674.25710     -1868.14300        35.49000  24852113.23500   -414575.34610     -1392.50000        18.06800
G10  21198483.79000   -828284.51900     -4122.78600        36.09400  21198476.59600   -952567.73700     -3078.69100        25.37000
G12  22074363.73400   -701771.18500     -3516.34200        37.20100         0.00000         0.00000         0.00000         0.00000
G14  21410933.81700     25462.65900        78.84200        36.11700         0.00000         0.00000         0.00000         0.00000
G20  23183175.51900  -1067002.36600     -5312.46800        31.29000         0.00000         0.00000         0.00000         0.00000
G25  20969280.46700   -265456.64700     -1405.58000        39.91200  20969279.86500   -298639.93400     -1049.67400        37.68800
G31  21823152.64200    143338.02700       640.05600        37.67500         0.00000         0.00000         0.00000         0.00000
G32  20538639.39200   -163176.08000      -864.42700        38.28900  20538636.39500   -182592.91800      -645.58200        32.88100
R06  21606595.16500   -992892.75100     -5103.18600        25.57800
R09  19285096.20300   -514753.95000     -2650.05400        33.43700
R16  22954903.05200  -1136125.73900     -5687.25000        28.48600
R07  19197640.14900   -342788.62200     -1801.07500        33.36500
R08  21052308.58600    328321.46500      1579.29200        27.59300
C04  39144466.84400   -170004.43900     -1615.75500        35.97800
C06  36008540.90100  -1660741.97300     -1569.09100        30.57300
E01  26271491.72300     54411.42600      1155.33100        30.17200  26271470.13700     58970.80800       862.79300        31.29600
E07  28783802.28500   -687323.62610     -4275.11700         7.00000  28783865.24100  -1518430.49510     -3180.49500         7.00000
E19  23349605.90100   -162571.31000     -1014.03000        29.83500  23349604.10400   -138803.11300      -757.91500        25.68900
E21  23511888.65500   -130709.69900     -1014.55400        33.07300  23511882.95800   -115989.25300      -757.64300        28.90000
E27  24958921.49400   -496857.24500     -3694.79800        35.48100  24958911.60000   -407682.65800     -2759.06500        30.10400
> 2018 12 17 07 31 22.9996760  0 20
G01  24852319.59300   -362543.14710     -1868.89000        35.53800  24852182.28600   -415971.00610     -1395.53000        18.14500
G10  21198981.24300   -832407.98400     -4123.46500        36.08400  21198975.55000   -955646.98100     -3079.24400        26.50200
G12  22074749.66300   -705288.30700     -3517.12200        37.32100         0.00000         0.00000         0.00000         0.00000
G14  21410632.62200     25541.07700        78.41800        36.11100         0.00000         0.00000         0.00000         0.00000
G20  23183899.91600  -1072315.17300     -5312.80700        30.96500         0.00000         0.00000         0.00000         0.00000
G25  20969261.07600   -266863.13400     -1406.48700        39.95100  20969261.07600   -299690.20200     -1050.26700        37.95700
G31  21822747.72200    143977.51000       639.48300        37.37000         0.00000         0.00000         0.00000         0.00000
G32  20538518.37400   -164041.06300      -864.98300        38.33400  20538514.47900   -183238.81800      -645.90000        32.80300
R06  21607273.69000   -997996.80410     -5103.83100        26.23700
R09  19285303.15900   -517404.89500     -2650.94500        33.21800
R16  22955686.80200  -1141813.25100     -5687.51300        28.72100
R07  19197693.01000   -344590.57700     -1801.95500        32.87300
R08  21051720.79300    329900.22800      1578.76400        27.37500
C04  39144491.52800   -171620.85400     -1616.41500        35.99200
C06  36008555.69000  -1662311.33600     -1569.36300        30.55400
E01  26270988.46800     55566.36300      1154.93700        30.45700  26270965.08400     59833.27400       862.46600        31.44200
E07  28784330.61600   -691598.74310     -4275.11700         7.00000  28784397.17100  -1521611.10610     -3180.49500         7.00000
E19  23349514.56300   -163584.17500     -1015.11300        29.85500  23349510.66200   -139561.38300      -758.27100        25.74200
E21  23511793.12000   -131724.85500     -1015.15500        33.03600  23511791.31800   -116747.25700      -758.00400        28.64900
E27  24959340.40400   -500552.47300     -3695.22800        35.33700  24959329.00900   -410442.08300     -2759.42500        29.95600
> 2018 12 17 07 31 23.9996760  0 20
G01  24852388.94000   -364412.77210     -1869.62500        35.74100  24852250.73800   -417367.19210     -1398.86000        19.05800
G10  21199479.89600   -836532.08900     -4124.10500        36.37100  21199476.30200   -958726.67000     -3079.68900        26.24800
G12  22075134.99400   -708806.08000     -3517.77300        37.03000         0.00000         0.00000         0.00000         0.00000
G14  21410334.72500     25619.21700        78.13900        35.79700         0.00000         0.00000         0.00000         0.00000
G20  23184624.91200  -1077628.29700     -5313.12500        30.81500         0.00000         0.00000         0.00000         0.00000
G25  20969244.08800   -268270.52000     -1407.38600        39.95100  20969242.88800   -300741.18900     -1050.98700        37.88300
G31  21822343.39700    144616.53400       639.02400        36.67200         0.00000         0.00000         0.00000         0.00000
G32  20538394.65700   -164906.52500      -865.46100        38.50400  20538393.16000   -183885.11400      -646.29600        32.87600
R06  21607953.71600  -1003101.33700     -5104.53400        26.92400
R09  19285515.80700   -520056.67800     -2651.78200        33.07200
R16  22956484.65200  -1147500.96700     -5687.71600        29.18900
R07  19197738.37600   -346393.40400     -1802.82700        32.81700
R08  21051138.09500    331478.60100      1578.37300        27.01800
C04  39144515.60900   -173237.38800     -1616.53400        35.88500
C06  36008571.67400  -1663880.82300     -1569.48700        30.69900
E01  26270493.00800     56721.07900      1154.71600        30.46800  26270459.13300     60695.49900       862.22500        31.33200
E07  28784858.35000   -695873.86010     -4275.11700         7.00000  28784923.70500  -1524791.64310     -3183.82900         7.00000
E19  23349419.02700   -164600.06200     -1015.09000        29.92900  23349418.42500   -140319.95500      -758.57200        26.16600
E21  23511700.58100   -132740.59100     -1015.73600        33.06200  23511697.28300   -117505.78800      -758.53100        28.80700
E27  24959753.91300   -504248.09700     -3695.62400        35.24200  24959746.12100   -413201.78900     -2759.70600        29.80000
> 2018 12 17 07 31 24.9996750  0 20
G01  24852462.48800   -366283.23410     -1870.46200        35.82300  24852324.28200   -418764.03510     -1400.91900        18.98400
G10  21199977.65100   -840656.94500     -4124.85600        36.32400  21199973.15300   -961806.87800     -3080.20800        26.42700
G12  22075522.42400   -712324.83700     -3518.75700        37.02000         0.00000         0.00000         0.00000         0.00000
G14  21410032.63100     25696.88800        77.67200        35.65800         0.00000         0.00000         0.00000         0.00000
G20  23185347.20700  -1082941.78200     -5313.48400        30.48000         0.00000         0.00000         0.00000         0.00000
G25  20969225.59500   -269678.82700     -1408.30700        39.85400  20969225.59500   -301792.88500     -1051.69600        37.93700
G31  21821935.48000    145254.92800       638.39400        36.14800         0.00000         0.00000         0.00000         0.00000
G32  20538271.54100   -165772.55600      -866.03100        38.60500  20538272.44000   -184531.76900      -646.65400        32.77200
R06  21608620.85600  -1008206.46200     -5105.12400        27.00700
R09  19285719.76500   -522709.36100     -2652.68300        33.25900
R16  22957279.19500  -1153189.01600     -5688.04900        29.37300
R07  19197809.52500   -348197.14400     -1803.74000        33.16300
R08  21050545.50300    333056.31900      1577.71800        26.68200
C04  39144540.89000   -174854.67500     -1617.28700        35.89200
C06  36008587.66300  -1665450.62600     -1569.80300        30.73900
E01  26269981.06200     57875.27000      1154.19200        30.81600  26269953.18100     61557.38400       861.88400        31.25800
E07  28785386.98300   -700150.92310     -4275.11700         7.00000  28785453.23700  -1527974.52210     -3183.73400         7.00000
E19  23349329.18500   -165614.36100     -1016.78900        30.01900  23349324.68700   -141078.93800      -758.98300        26.19500
E21  23511606.54200   -133756.99700     -1016.40600        33.12800  23511606.54200   -118264.77100      -758.98400        28.91500
E27  24960169.52500   -507944.20900     -3696.11200        35.40100  24960162.92900   -415961.88500     -2760.09600        29.67000
> 2018 12 17 07 31 25.9996730  0 20
G01  24852464.25900   -368154.49510     -1871.26100        35.58700  24852323.65400   -420161.36310     -1403.62300        18.95300
G10  21200404.52700   -844782.46610     -4125.52100        36.41900  21200400.92800   -964887.66910     -3080.83500        26.08400
G12  22075836.58000   -715844.31700     -3519.48000        37.01600         0.00000         0.00000         0.00000         0.00000
G14  21409659.06200     25774.22800        77.33900        35.60900         0.00000         0.00000         0.00000         0.00000
G20  23185997.72900  -1088255.63300     -5313.85200        29.94300         0.00000         0.00000         0.00000         0.00000
G25  20969135.63100   -271088.09500     -1409.26800        39.89100  20969136.23300   -302845.20900     -1052.32500        37.83800
G31  21821461.77700    145892.84200       637.91400        35.37900         0.00000         0.00000         0.00000         0.00000
G32  20538082.04500   -166639.12600      -866.57000        38.58700  20538079.94600   -185178.90600      -647.13700        32.79800
R06  21609227.90500  -1013312.26300     -5105.80100        26.92700
R09  19285854.04500   -525363.07500     -2653.71400        33.32900
R16  22957995.97200  -1158877.37500     -5688.35800        29.89000
R07  19197788.51100   -350001.81900     -1804.67400        33.33300
R08  21049878.43400    334633.44400      1577.12500        26.05400
C04  39144494.39400   -176471.16500     -1616.49000        36.03100
C06  36008532.77400  -1667020.71200     -1570.08600        30.82200
E01  26269404.53300     59029.05700      1153.78700        31.16700  26269378.14800     62419.00300       861.62000        31.45300
E07  28785843.53700   -704427.99110     -4275.12500         7.00000  28785906.49300  -1531155.04010     -3191.08900         7.00000
E19  23349168.16700   -166630.70200     -1016.01200        29.97300  23349163.37300   -141838.22800      -759.29000        26.02100
E21  23511441.32800   -134774.00300     -1017.00600        33.09400  23511441.62900   -119024.21800      -759.44700        28.90900
E27  24960514.55900   -511640.83200     -3696.62300        35.45800  24960509.76000   -418722.34600     -2760.46100        29.67800
> 2018 12 17 07 31 26.9996720  0 20
G01  24852533.60600   -370026.33110     -1871.83600        34.91100  24852390.60600   -421558.96410     -1402.54500        20.58200
G10  21200907.07600   -848908.56300     -4126.09700        36.45200  21200899.88200   -967968.82800     -3081.15900        26.01300
G12  22076221.00900   -719364.49200     -3520.17500        36.84900         0.00000         0.00000         0.00000         0.00000
G14  21409358.46800     25851.30300        77.07500        35.67800         0.00000         0.00000         0.00000         0.00000
G20  23186720.92700  -1093569.66400     -5314.03100        30.27200         0.00000         0.00000         0.00000         0.00000
G25  20969118.34200   -272498.12800     -1410.03300        39.77100  20969118.94000   -303898.19300     -1052.98300        37.95100
G31  21821057.15400    146530.33500       637.49400        34.83300         0.00000         0.00000         0.00000         0.00000
G32  20537961.92600   -167506.08000      -866.95400        38.67800  20537958.92500   -185826.36800      -647.46200        32.79000
R06  21609898.34300  -1018418.54100     -5106.27800        26.92900
R09  19286065.79400   -528017.32100     -2654.24700        33.15800
R16  22958779.12900  -1164565.75300     -5688.37800        30.49500
R07  19197830.57900   -351807.32500     -1805.50600        33.17300
R08  21049296.03700    336210.25200      1576.80700        26.35400
C04  39144518.77200   -178088.16500     -1617.00000        36.01000
C06  36008549.36000  -1668590.82500     -1570.11400        31.17600
E01  26268908.77200     60182.66100      1153.60300        31.49800  26268871.59900     63280.43000       861.42700        31.34900
E07  28786371.56700   -708704.67710     -4277.06900         9.16400  28786437.22400  -1534337.71310     -3180.49500         7.00000
E19  23349067.53600   -167646.33500     -1017.33100        29.93000  23349068.43500   -142597.75800      -759.53000        26.02000
E21  23511350.59100   -135791.39500     -1017.39200        32.68900  23511349.69200   -119784.01100      -759.79200        28.61500
E27  24960926.86900   -515337.70200     -3696.87000        35.31300  24960927.76700   -421483.13500     -2760.78900        29.60000
> 2018 12 17 07 31 27.9996710  0 20
G01  24852529.68400   -371898.89210     -1872.56100        34.52500  24852390.58000   -422957.35310     -1396.09500        18.90400
G10  21201332.45500   -853035.20900     -4126.64600        36.53300  21201329.75500   -971050.38600     -3081.55800        25.73400
G12  22076533.36700   -722885.43000     -3520.93800        36.83900         0.00000         0.00000         0.00000         0.00000
G14  21408986.39900     25928.10500        76.80100        35.76100         0.00000         0.00000         0.00000         0.00000
G20  23187375.04400  -1098883.94600     -5314.28200        30.06400         0.00000         0.00000         0.00000         0.00000
G25  20969029.27600   -273908.97000     -1410.84200        39.67500  20969029.57300   -304951.67500     -1053.48200        37.89800
G31  21820581.35600    147167.38300       637.04700        34.06300         0.00000         0.00000         0.00000         0.00000
G32  20537770.03000   -168373.44100      -867.36100        38.60000  20537766.43100   -186474.00500      -647.63700        32.95600
R06  21610505.68900  -1023525.39400     -5106.85300        26.41900
R09  19286214.76700   -530672.43400     -2655.11200        33.17600
R16  22959492.00500  -1170254.31000     -5688.55700        30.48500
R07  19197801.77300   -353613.64700     -1806.32200        33.09400
R08  21048663.74600    337786.68010      1576.26200        26.58200
C04  39144471.67800   -179705.25500     -1617.09000        36.04800
C06  36008493.57200  -1670161.09300     -1570.26700        30.99900
E01  26268325.64700     61335.96200      1153.30100        31.97300  26268294.17100     64141.66000       861.23000        31.27700
E07  28786828.12600   -712981.74510     -4277.06900         8.30400  28786887.48300  -1537519.67310     -3182.07600        11.94100
E19  23348906.81900   -168663.38400     -1016.96500        29.90200  23348907.71800   -143357.64100      -759.88300        25.87100
E21  23511184.77900   -136809.41200     -1018.01700        32.55600  23511185.07600   -120544.24600      -760.23500        29.10700
E27  24961271.30500   -519034.95300     -3697.25100        35.22600  24961273.10300   -424243.94200     -2760.80700        29.79700
> 2018 12 17 07 31 28.9996700  0 20
G01  24852516.76300   -373772.25410     -1873.36300        33.94100  24852395.04700   -424356.40910     -1398.99400        18.69900
G10  21201762.02700   -857162.60510     -4127.39600        36.70200  21201758.13100   -974132.53610     -3082.04400        26.42500
G12  22076847.51900   -726407.14600     -3521.71600        37.01700         0.00000         0.00000         0.00000         0.00000
G14  21408610.73100     26004.49200        76.38700        35.45300         0.00000         0.00000         0.00000         0.00000
G20  23188028.56400  -1104198.62400     -5314.67800        30.07900         0.00000         0.00000         0.00000         0.00000
G25  20968939.31100   -275320.74400     -1411.77300        39.59600  20968940.50700   -306005.93700     -1054.26300        37.97200
G31  21820100.46300    147803.84200       636.45900        33.59600         0.00000         0.00000         0.00000         0.00000
G32  20537578.43600   -169241.36900      -867.92700        38.65500  20537574.23900   -187122.13300      -648.12800        32.78500
R06  21611110.04200  -1028632.76600     -5107.37200        26.24200
R09  19286352.03900   -533328.46900     -2656.03500        33.45900
R16  22960207.58600  -1175943.20500     -5688.89500        30.89000
R07  19197779.55900   -355420.91100     -1807.26400        32.37300
R08  21048020.96300    339362.51000      1575.82900        27.46400
C04  39144424.88100   -181322.57300     -1617.31800        36.00700
C06  36008437.18100  -1671731.63700     -1570.54400        31.07400
E01  26267748.82200     62488.80300      1152.84100        31.84200  26267717.34100     65002.58600       860.92700        31.23000
E07  28787284.68100   -717258.81410     -4277.06900         7.44400  28787349.73500  -1540694.97510     -3167.02300         7.00000
E19  23348747.60400   -169679.85700     -1018.39800        29.83300  23348740.40500   -144117.87600      -760.23600        25.83800
E21  23511017.46600   -137828.08300     -1018.67100        32.36600  23511021.96400   -121304.89900      -760.65400        29.00200
E27  24961614.53800   -522732.69000     -3697.73700        35.11400  24961619.33200   -427005.25000     -2761.30900        29.83100
> 2018 12 17 07 31 29.9996690  0 20
G01  24852572.02300   -375646.45010     -1874.19600        33.72100  24852461.40200   -425756.01910     -1404.18700        18.30600
G10  21202260.08300   -861290.72210     -4128.11700        36.59700  21202256.78500   -977215.26110     -3082.75600        26.40600
G12  22077231.05300   -729929.66100     -3522.51500        36.66900         0.00000         0.00000         0.00000         0.00000
G14  21408311.63400     26080.50600        76.01400        35.44000         0.00000         0.00000         0.00000         0.00000
G20  23188754.16100  -1109513.72200     -5315.09800        29.51900         0.00000         0.00000         0.00000         0.00000
G25  20968921.71700   -276733.44300     -1412.69900        39.61600  20968924.11700   -307060.91000     -1054.97300        37.95100
G31  21819691.34300    148439.73700       635.89500        33.09400         0.00000         0.00000         0.00000         0.00000
G32  20537456.81700   -170109.80200      -868.43300        38.60200  20537453.81900   -187770.70200      -648.56900        32.77500
R06  21611769.68600  -1033740.91610     -5108.47600        25.47800
R09  19286565.89100   -535985.35800     -2656.89000        33.55900
R16  22960990.73900  -1181632.38200     -5689.17700        31.08000
R07  19197839.31700   -357229.16500     -1808.25400        33.34100
R08  21047484.43000    340937.83200      1575.32200        27.86000
C04  39144449.26300   -182940.09800     -1617.52400        36.02400
C06  36008451.66900  -1673302.42300     -1570.78600        30.96500
E01  26267243.76900     63641.27800      1152.47500        32.09500  26267211.98700     65863.14200       860.55600        31.30900
E07  28787812.41400   -721535.88210     -4277.06900         7.00000  28787874.47200  -1543875.46010     -3164.39300         7.23800
E19  23348648.16800   -170697.95000     -1017.65800        29.88500  23348650.86800   -144878.45500      -760.57900        25.76400
E21  23510927.02600   -138847.38300     -1019.30000        32.18800  23510929.12500   -122066.05200      -761.15300        28.98100
E27  24962028.34800   -526430.93800     -3698.24800        35.15200  24962037.64000   -429766.91500     -2761.66500        29.87200
> 2018 12 17 07 31 30.9996680  0 20
G01  24852632.07800   -377521.19810     -1874.74800        34.19300  24852533.14800   -427156.05010     -1401.75500        19.69800
G10  21202759.03700   -865419.35800     -4128.63600        36.61300  21202757.23500   -980298.32400     -3083.06300        26.55300
G12  22077617.28300   -733452.92000     -3523.25900        36.56600         0.00000         0.00000         0.00000         0.00000
G14  21408010.14200     26156.28200        75.77600        35.41100         0.00000         0.00000         0.00000         0.00000
G20  23189477.65600  -1114828.87600     -5315.15400        29.34000         0.00000         0.00000         0.00000         0.00000
G25  20968909.52400   -278146.93700     -1413.49400        39.85800  20968906.82800   -308116.41400     -1055.50300        38.07100
G31  21819283.12600    149075.33900       635.60200        32.47000         0.00000         0.00000         0.00000         0.00000
G32  20537336.39700   -170978.67800      -868.87600        38.54400  20537333.40000   -188419.45300      -648.75100        33.12800
R06  21612421.83200  -1038849.39000     -5108.47300        25.48700
R09  19286772.24900   -538642.94800     -2657.59000        33.04300
R16  22961777.79200  -1187321.61900     -5689.23800        31.18300
R07  19197905.66700   -359038.10000     -1808.93500        33.62900
R08  21046890.34100    342512.81000      1574.97800        28.56400
C04  39144474.24300   -184557.63300     -1617.53500        35.96000
C06  36008467.65400  -1674873.32900     -1570.90700        30.98500
E01  26266739.31300     64793.51200      1152.23400        31.82200  26266707.23600     66723.57200       860.43000        31.35000
E07  28788340.44500   -725812.95110     -4277.06900         7.00000  28788407.00000  -1547052.78410     -3180.49500         7.00000
E19  23348557.72800   -171714.25200     -1017.70400        29.57400  23348558.33000   -145639.30300      -760.84800        25.93000
E21  23510834.78900   -139867.14600     -1019.76400        32.38800  23510838.38400   -122827.55700      -761.50500        29.19400
E27  24962447.25800   -530129.41000     -3698.47200        35.23000  24962455.35100   -432528.75100     -2761.83600        29.58600
> 2018 12 17 07 31 31.9996670  0 20
G01  24852636.85100   -379396.82110     -1875.62300        33.81500  24852531.92200   -428556.49110     -1396.71200        20.06000
G10  21203188.01100   -869548.76300     -4129.40500        36.38000  21203185.31100   -983381.94100     -3083.61700        26.42500
G12  22077931.73600   -736976.98800     -3524.06800        36.02100         0.00000         0.00000         0.00000         0.00000
G14  21407636.57300     26231.61800        75.33600        35.33300         0.00000         0.00000         0.00000         0.00000
G20  23190129.67900  -1120144.49200     -5315.61500        29.22700         0.00000         0.00000         0.00000         0.00000
G25  20968821.35700   -279561.37000     -1414.43300        39.86100  20968818.96200   -309172.66400     -1056.25100        38.03400
G31  21818804.32700    149710.23100       634.89200        32.29500         0.00000         0.00000         0.00000         0.00000
G32  20537141.20300   -171848.05500      -869.37700        38.42300  20537141.20300   -189068.76700      -649.31400        32.88600
R06  21613031.88300  -1043958.58700     -5109.19800        26.12900
R09  19286897.53300   -541301.56200     -2658.61400        33.07900
R16  22962481.37600  -1193011.21700     -5689.59800        31.10500
R07  19197885.25500   -360848.04800     -1809.94800        34.10900
R08  21046237.66400    344087.21000      1574.40000        28.88900
C04  39144427.44600   -186175.42100     -1617.78800        35.84500
C06  36008413.06500  -1676444.48200     -1571.15200        30.86800
E01  26266162.48300     65945.28000      1151.76800        31.71800  26266131.30900     67583.66600       860.09400        31.19300
E07  28788797.00400   -730090.01910     -4277.06900         7.00000  28788860.25600  -1550233.27810     -3180.49500         7.00000
E19  23348392.51400   -172733.21700     -1017.96300        29.92400  23348394.31500   -146400.54600      -761.24300        25.94500
E21  23510670.77400   -140887.56700     -1020.42000        32.06200  23510674.97100   -123589.56200      -762.00500        29.26400
E27  24962790.79200   -533828.43400     -3699.02400        35.03600  24962801.58500   -435291.06500     -2762.31500        29.94800
> 2018 12 17 07 31 32.9996660  0 20
G01  24852718.78800   -381273.17910     -1876.35800        33.85800  24852604.56800   -429957.55210     -1395.39700        20.33900
G10  21203687.26200   -873678.83700     -4130.07400        36.12800  21203683.96400   -986466.11900     -3084.17800        26.95200
G12  22078317.96600   -740501.80100     -3524.81300        35.89800         0.00000         0.00000         0.00000         0.00000
G14  21407342.57600     26306.61400        74.99600        35.51100         0.00000         0.00000         0.00000         0.00000
G20  23190855.57300  -1125460.46200     -5315.97000        29.11200         0.00000         0.00000         0.00000         0.00000
G25  20968803.16900   -280976.70600     -1415.33600        39.88200  20968801.66800   -310229.58400     -1056.92000        38.06200
G31  21818391.61200    150344.64400       634.41400        32.65900         0.00000         0.00000         0.00000         0.00000
G32  20537019.88500   -172717.96900      -869.91300        38.31900  20537020.78400   -189718.35500      -649.58800        32.93500
R06  21613727.49600  -1049068.31100     -5109.72400        26.62200
R09  19287124.87400   -543961.04300     -2659.48100        33.27000
R16  22963251.94300  -1198701.13000     -5689.91300        30.98700
R07  19197933.91500   -362658.85100     -1810.80300        34.13500
R08  21045654.06800    345661.08000      1573.86900        28.94400
C04  39144452.13000   -187793.38800     -1617.96700        35.97100
C06  36008427.55300  -1678015.83800     -1571.35600        31.02500
E01  26265656.23500     67096.70800      1151.42700        31.66300  26265625.95500     68443.49000       859.82400        31.28600
E07  28789325.03400   -734367.08810     -4277.06900         7.00000  28789392.18700  -1553413.77310     -3180.49500         7.00000
E19  23348305.97400   -173749.65800     -1018.10000        29.97100  23348302.37400   -147162.11700      -761.57100        25.87600
E21  23510577.63400   -141908.56700     -1021.00000        32.05900  23510583.03000   -124352.01100      -762.44900        29.09300
E27  24963207.59900   -537527.86300     -3699.42900        35.08500  24963220.18900   -438053.60400     -2762.53900        29.88200
> 2018 12 17 07 31 33.9996650  0 20
G01  24852835.80500   -383150.07710     -1876.89800        33.84500  24852673.91900   -431359.23910     -1398.25800        19.74900
G10  21204183.81600   -877809.32700     -4130.49000        36.40100  21204185.91500   -989550.53700     -3084.41800        26.75300
G12  22078697.90100   -744027.23300     -3525.43300        35.82200         0.00000         0.00000         0.00000         0.00000
G14  21407042.88100     26381.45900        74.84500        35.66000         0.00000         0.00000         0.00000         0.00000
G20  23191579.36900  -1130776.46600     -5316.00400        29.26900         0.00000         0.00000         0.00000         0.00000
G25  20968788.27500   -282392.71200     -1416.00600        39.97600  20968785.27800   -311286.94800     -1057.36400        38.03300
G31  21817981.59200    150978.79200       634.14800        33.17100         0.00000         0.00000         0.00000         0.00000
G32  20536899.76600   -173588.20500      -870.23600        38.43200  20536900.66500   -190368.14600      -649.79200        32.67800
R06  21614391.03600  -1054178.48100     -5110.17000        27.06300
R09  19287339.32000   -546621.09400     -2660.05100        33.53100
R16  22964040.49200  -1204390.96100     -5689.83100        31.08000
R07  19197992.17200   -364470.40300     -1811.55200        34.30100
R08  21045066.57100    347234.73800      1573.65800        28.96800
C04  39144477.41100   -189411.27200     -1617.88400        36.00400
C06  36008441.74000  -1679587.22800     -1571.39000        30.96400
E01  26265151.47900     68247.94000      1151.23200        31.44300  26265120.90200     69303.22100       859.73100        31.45800
E07  28789853.06500   -738644.15610     -4277.06900         7.00000  28789916.92400  -1556594.26810     -3180.49500         7.00000
E19  23348212.83700   -174769.64400     -1018.67200        29.98800  23348211.03600   -147923.88200      -761.76500        26.08200
E21  23510488.39300   -142930.02000     -1021.45300        31.86400  23510491.39000   -125114.78100      -762.77000        29.21300
E27  24963622.60900   -541227.56100     -3699.69800        34.79300  24963638.20000   -440816.33200     -2762.72800        29.98000
> 2018 12 17 07 31 34.9996640  0 20
G01  24852841.77300   -385027.62110     -1877.54400        33.81100  24852672.09100   -432761.30010     -1401.05200        19.29800
G10  21204619.68800   -881940.40300     -4131.07600        36.39700  21204614.58800   -992635.45400     -3084.91700        27.59400
G12  22079011.75600   -747553.36400     -3526.13000        35.68800         0.00000         0.00000         0.00000         0.00000
G14  21406670.80800     26456.06200        74.60300        35.88000         0.00000         0.00000         0.00000         0.00000
G20  23192238.88700  -1136092.73700     -5316.27100        28.93300         0.00000         0.00000         0.00000         0.00000
G25  20968695.91100   -283809.54100     -1416.82900        40.13300  20968697.71300   -312344.96200     -1058.01400        38.17800
G31  21817504.29400    151612.48600       633.69400        33.40100         0.00000         0.00000         0.00000         0.00000
G32  20536709.07000   -174458.77400      -870.57000        38.75600  20536708.47300   -191018.30300      -650.15700        32.53900
R06  21614977.10600  -1059289.17100     -5110.69000        27.65800
R09  19287486.49100   -549281.87600     -2660.78200        33.80000
R16  22964741.98200  -1210081.00800     -5690.04600        30.98700
R07  19197973.56100   -366282.75700     -1812.35500        34.79600
R08  21044409.39600    348807.98700      1573.24900        29.44100
C04  39144430.31200   -191029.24100     -1617.96900        35.94400
C06  36008387.74900  -1681158.71600     -1571.48900        30.84200
E01  26264575.25100     69398.96100      1151.02100        31.48500  26264544.37300     70162.69500       859.47400        31.76600
E07  28790311.12000   -742923.17010     -4277.06900         7.82400  28790379.47200  -1559784.49010     -3180.49500         7.00000
E19  23348044.32500   -175788.08600     -1020.47800        29.77900  23348047.92000   -148685.85500      -761.97400        26.67400
E21  23510325.87900   -143951.88200     -1021.86300        31.54800  23510328.57500   -125877.87000      -763.08900        28.83700
E27  24963970.04300   -544927.58400     -3700.02300        34.93800  24963984.43000   -443579.32300     -2762.99000        29.95100
> 2018 12 17 07 31 35.9996630  0 20
G01  24852920.41700   -386905.89710     -1878.27600        33.79300  24852744.44000   -434163.91810     -1403.19900        20.28400
G10  21205120.13800   -886072.12100     -4131.71800        36.70000  21205114.44100   -995720.86500     -3085.41100        27.90000
G12  22079398.58800   -751080.20200     -3526.83900        35.71500         0.00000         0.00000         0.00000         0.00000
G14  21406373.81400     26530.33800        74.27600        35.91600         0.00000         0.00000         0.00000         0.00000
G20  23192964.48000  -1141409.34800     -5316.61000        29.14200         0.00000         0.00000         0.00000         0.00000
G25  20968682.51800   -285227.15400     -1417.61300        40.14300  20968681.62000   -313403.61600     -1058.65400        38.24900
G31  21817096.67400    152245.65500       633.16900        34.17200         0.00000         0.00000         0.00000         0.00000
G32  20536590.74900   -175329.91400      -871.14000        38.51900  20536588.35400   -191668.77700      -650.47400        32.66800
R06  21615666.42500  -1064400.41200     -5111.24100        28.02100
R09  19287697.64300   -551943.56900     -2661.69300        33.85900
R16  22965519.44100  -1215771.22700     -5690.22000        30.31500
R07  19198027.02000   -368095.92700     -1813.17000        34.55100
R08  21043831.49700    350380.68200      1572.69600        29.77400
C04  39144454.99600   -192647.33900     -1618.09800        35.99000
C06  36008404.03900  -1682730.41000     -1571.69300        30.70900
E01  26264070.49900     70549.64400      1150.68300        31.10700  26264039.32000     71021.98100       859.28600        31.73000
E07  28790839.45100   -747202.18910     -4277.07600         7.00000  28790906.60900  -1562974.74010     -3180.51400         7.16000
E19  23347953.58400   -176809.02900     -1020.16600        29.71400  23347955.08500   -149448.17900      -762.32400        27.01600
E21  23510233.93900   -144974.36000     -1022.47800        31.53700  23510236.94000   -126641.38000      -763.51000        28.48000
E27  24964391.64900   -548627.96700     -3700.38400        34.96600  24964403.64100   -446342.64200     -2763.31900        29.79900
> 2018 12 17 07 31 36.9996620  0 20
G01  24852989.16600   -388784.79910     -1878.90200        33.76800  24852817.38600   -435567.03310     -1404.05300        20.59200
G10  21205619.08800   -890204.37400     -4132.25300        36.82300  21205613.69200   -998806.61300     -3085.74900        28.37700
G12  22079783.92000   -754607.70500     -3527.50200        35.50600         0.00000         0.00000         0.00000         0.00000
G14  21406076.81500     26604.41700        74.07900        36.00000         0.00000         0.00000         0.00000         0.00000
G20  23193692.77300  -1146726.06100     -5316.71300        29.23400         0.00000         0.00000         0.00000         0.00000
G25  20968664.33100   -286645.58400     -1418.43000        40.02800  20968665.82700   -314462.82000     -1059.20400        38.20800
G31  21816683.95900    152878.49800       632.84300        34.46500         0.00000         0.00000         0.00000         0.00000
G32  20536470.63100   -176201.30900      -871.39500        38.74600  20536468.53200   -192319.52300      -650.74600        32.54200
R06  21616338.35400  -1069512.08400     -5111.67200        27.87200
R09  19287915.69200   -554605.87100     -2662.30100        33.75600
R16  22966299.59700  -1221461.59600     -5690.36800        29.64100
R07  19198074.78600   -369909.84600     -1813.91900        34.56100
R08  21043244.00100    351953.13500      1572.45300        29.89700
C04  39144480.27200   -194265.44000     -1618.10100        36.04300
C06  36008418.52700  -1684302.14600     -1571.73600        30.89000
E01  26263555.85300     71700.08200      1150.43700        31.00100  26263534.86900     71881.06600       859.08500        31.63600
E07  28791368.38500   -751480.82610     -4279.02000         7.00000  28791437.63600  -1566163.15310     -3190.25100         8.98600
E19  23347865.24200   -177828.75200     -1020.43300        29.49700  23347864.94600   -150210.85700      -762.67700        26.75400
E21  23510150.69700   -145997.34100     -1022.98000        31.13500  23510146.50000   -127405.27400      -763.89300        28.45200
E27  24964808.45600   -552328.68300     -3700.71600        35.05600  24964822.24600   -449106.16400     -2763.52200        29.84300
> 2018 12 17 07 31 37.9996610  0 20
G01  24853064.81300   -390664.50010     -1879.70200        33.72600  24852884.93600   -436970.73910     -1405.98000        20.42800
G10  21206125.83800   -894337.33710     -4132.96400        36.52400  21206116.84300  -1001892.96110     -3086.65800        28.13800
G12  22080171.35000   -758136.05400     -3528.34900        35.15000         0.00000         0.00000         0.00000         0.00000
G14  21405774.72200     26678.05600        73.63800        36.10000         0.00000         0.00000         0.00000         0.00000
G20  23194419.86700  -1152043.18800     -5317.12700        29.01000         0.00000         0.00000         0.00000         0.00000
G25  20968648.23700   -288064.98500     -1419.40000        39.78000  20968650.03900   -315522.72600     -1059.90600        38.44500
G31  21816278.73500    153510.72600       632.22800        35.11100         0.00000         0.00000         0.00000         0.00000
G32  20536347.81600   -177073.39500      -872.08600        38.67200  20536348.71500   -192970.72800      -651.20400        32.58000
R06  21617020.78000  -1074624.42300     -5112.33800        27.72700
R09  19288116.64900   -557269.14300     -2663.27300        33.57700
R16  22967053.97000  -1227152.17400     -5690.57800        29.04600
R07  19198128.84200   -371724.80000     -1814.95400        34.54100
R08  21042667.29700    353525.00500      1571.87000        30.25000
C04  39144504.95600   -195883.77600     -1618.33600        36.01300
C06  36008436.61000  -1685874.17600     -1572.03100        31.05200
E01  26263056.49700     72850.06800      1149.98700        30.82700  26263029.51500     72739.82800       858.76200        31.57800
E07  28791896.71600   -755759.84610     -4279.02000         7.00000  28791962.67000  -1569355.39910     -3189.67900         7.00000
E19  23347771.80500   -178850.47700     -1021.09600        29.68900  23347773.30600   -150973.81900      -762.96300        26.20700
E21  23510054.86000   -147020.95600     -1023.61500        31.46800  23510055.16100   -128169.65400      -764.38000        28.34400
E27  24965228.56500   -556029.90210     -3701.21900        34.97600  24965240.25700   -451870.01310     -2763.87500        29.99800
> 2018 12 17 07 31 38.9996600  0 20
G01  24853063.28600   -392544.88810     -1880.38700        32.62400  24852887.30900   -438374.82910     -1404.62100        20.88700
G10  21206551.21300   -898470.85300     -4133.51500        36.43900  21206544.61700  -1004979.59800     -3086.63700        28.09800
G12  22080484.90400   -761665.06900     -3529.01500        34.85800         0.00000         0.00000         0.00000         0.00000
G14  21405405.64900     26751.50600        73.45000        35.86200         0.00000         0.00000         0.00000         0.00000
G20  23195071.28800  -1157360.55100     -5317.36300        28.86600         0.00000         0.00000         0.00000         0.00000
G25  20968561.57100   -289485.08000     -1420.09600        39.66600  20968562.77100   -316583.22000     -1060.49400        38.39300
G31  21815796.64200    154142.57100       631.84500        35.74400         0.00000         0.00000         0.00000         0.00000
G32  20536156.81900   -177945.73800      -872.34400        38.63200  20536157.12000   -193622.19800      -651.47000        32.75700
R06  21617628.13500  -1079737.29300     -5112.87000        27.67300
R09  19288266.81600   -559933.12800     -2663.98500        33.56300
R16  22967744.37000  -1232842.92800     -5690.75400        28.89500
R07  19198115.62400   -373540.43800     -1815.63800        33.98900
R08  21042023.61500    355096.50600      1571.50000        30.40800
C04  39144458.15900   -197502.15600     -1618.38000        35.97800
C06  36008378.72300  -1687446.25700     -1572.08100        30.78300
E01  26262479.66700     73999.86800      1149.80000        30.85200  26262452.98600     73598.44300       858.61600        31.57000
E07  28792355.36900   -760039.83810     -4279.02000         7.00000  28792424.92100  -1572540.25610     -3196.53900         8.77700
E19  23347610.78700   -179871.46100     -1023.07800        29.53600  23347610.78700   -151737.01200      -763.19200        26.01100
E21  23509895.34300   -148044.90700     -1023.95100        31.49800  23509892.64300   -128934.35300      -764.69900        28.47200
E27  24965575.09600   -559731.35500     -3701.45200        35.05100  24965586.78800   -454634.12200     -2764.10900        30.25300
> 2018 12 17 07 31 39.9996590  0 20
G01  24853140.73000   -394425.90010     -1881.01300        31.99800  24852960.25600   -439778.87310     -1399.94100        20.27600
G10  21207046.86900   -902605.07700     -4134.22400        35.80400  21207045.36900  -1008066.90200     -3087.30400        28.00000
G12  22080872.33400   -765194.82100     -3529.75200        34.55500         0.00000         0.00000         0.00000         0.00000
G14  21405103.55600     26824.56700        73.06100        35.95600         0.00000         0.00000         0.00000         0.00000
G20  23195799.88300  -1162678.16700     -5317.61600        28.64900         0.00000         0.00000         0.00000         0.00000
G25  20968546.07900   -290906.12500     -1421.04400        39.69400  20968547.27900   -317644.37400     -1061.15400        38.34800
G31  21815394.41900    154773.88700       631.31500        36.32500         0.00000         0.00000         0.00000         0.00000
G32  20536035.80200   -178818.62500      -872.88700        38.63300  20536037.00100   -194274.01500      -651.81700        32.42300
R06  21618287.47400  -1084850.74410     -5114.37500        26.84500
R09  19288463.87700   -562597.96800     -2664.84000        33.44300
R16  22968508.33600  -1238533.87800     -5690.95000        27.65700
R07  19198160.09600   -375357.06100     -1816.62300        33.95500
R08  21041447.50900    356667.54600      1571.04100        30.61300
C04  39144483.44000   -199120.69100     -1618.53500        36.12700
C06  36008394.11000  -1689018.64500     -1572.38900        30.81800
E01  26261974.01700     75149.28500      1149.41700        30.57600  26261948.83200     74456.73900       858.29600        31.38100
E07  28792883.70500   -764319.83410     -4279.02700         7.00000  28792952.05800  -1575730.55010     -3211.19200         9.23500
E19  23347522.14900   -180894.00400     -1022.55900        29.56300  23347518.85100   -152500.61400      -763.60300        26.27600
E21  23509803.10600   -149069.54800     -1024.64100        31.51000  23509802.80500   -129699.51400      -765.16200        28.84400
E27  24965999.10200   -563433.27500     -3701.92000        34.94800  24966005.99400   -457398.54300     -2764.42100        30.13400
> 2018 12 17 07 31 40.9996580  0 20
G01  24853217.27500   -396307.74110     -1881.84000        31.36100  24853033.20200   -441183.79810     -1402.05800        20.56300
G10  21207546.42100   -906739.92300     -4134.84600        35.72200  21207545.81900  -1011154.57400     -3087.67200        27.87600
G12  22081256.76200   -768725.42200     -3530.60100        33.96100         0.00000         0.00000         0.00000         0.00000
G14  21404804.16200     26897.27600        72.70900        35.95400         0.00000         0.00000         0.00000         0.00000
G20  23196522.78000  -1167996.20700     -5318.04000        28.85600         0.00000         0.00000         0.00000         0.00000
G25  20968529.08700   -292328.00200     -1421.87800        39.70500  20968532.38500   -318706.18500     -1061.81100        38.36000
G31  21814989.49500    155404.70700       630.82000        36.89900         0.00000         0.00000         0.00000         0.00000
G32  20535913.28400   -179692.03400      -873.40900        38.69700  20535917.78100   -194926.24800      -652.23300        32.52100
R06  21618951.61200  -1089964.68100     -5113.93700        26.76000
R09  19288678.92900   -565263.69000     -2665.72200        33.65100
R16  22969267.80900  -1244225.16010     -5691.69100        27.43800
R07  19198218.95100   -377174.60200     -1817.54100        34.02400
R08  21040875.90600    358237.96600      1570.42000        30.81500
C04  39144508.42000   -200739.41900     -1618.72800        36.00800
C06  36008410.39500  -1690591.14800     -1572.50200        30.79600
E01  26261468.66300     76298.31400      1149.03000        30.39600  26261444.38100     75314.79800       858.05900        31.53800
E07  28793411.13800   -768599.63810     -4279.99500         7.00000  28793484.28500  -1578924.92710     -3190.25100         9.59100
E19  23347429.01300   -181914.35100     -1023.29900        29.23200  23347427.51200   -153264.42100      -763.80700        26.69200
E21  23509712.66600   -150094.82700     -1025.27900        31.23200  23509710.86400   -130465.13300      -765.61900        28.48200
E27  24966415.90900   -567135.62000     -3702.34500        35.16000  24966424.30200   -460163.31000     -2764.76700        30.11600
> 2018 12 17 07 31 41.9996560  0 20
G01  24853151.46600   -398190.37210     -1882.63100        31.08300  24852960.50000   -442589.59410     -1406.02400        20.72700
G10  21207902.72000   -910875.44200     -4135.51900        35.95100  21207903.32200  -1014242.77400     -3088.20000        27.92700
G12  22081499.74300   -772256.78400     -3531.36200        33.83000         0.00000         0.00000         0.00000         0.00000
G14  21404362.71500     26969.60900        72.33300        35.84400         0.00000         0.00000         0.00000         0.00000
G20  23197105.12400  -1173314.49200     -5318.28500        28.57500         0.00000         0.00000         0.00000         0.00000
G25  20968371.54700   -293750.85400     -1422.85200        39.72800  20968374.24300   -319768.72800     -1062.54300        38.39800
G31  21814438.02500    156034.97700       630.27000        37.49400         0.00000         0.00000         0.00000         0.00000
G32  20535652.90900   -180565.91500      -873.88100        38.58000  20535655.90600   -195578.80100      -652.55300        32.44700
R06  21619462.00400  -1095079.29300     -5114.61200        25.93800
R09  19288754.62000   -567930.18000     -2666.49000        33.84400
R16  22969880.12900  -1249916.65500     -5691.49400        26.24000
R07  19198129.15600   -378992.96900     -1818.36700        33.65000
R08  21040161.64700    359808.01400      1570.04800        30.87400
C04  39144391.04900   -202358.26100     -1618.84200        36.10100
C06  36008282.23200  -1692163.91300     -1572.76500        30.84800
E01  26260820.95900     77447.01000      1148.69600        30.14300  26260797.27400     76172.55400       857.75500        31.45600
E07  28793796.81400   -772879.63410     -4279.99500         7.00000  28793861.86800  -1582111.44610     -3182.13300         7.55900
E19  23347195.01900   -182937.92600     -1021.85000        29.41100  23347195.62100   -154028.76000      -764.33800        26.43100
E21  23509482.86800   -151120.66000     -1025.83200        31.33700  23509477.47200   -131231.18700      -766.05400        28.44800
E27  24966694.86300   -570838.42000     -3702.80000        35.22500  24966699.95900   -462928.38000     -2765.07000        30.59600
> 2018 12 17 07 31 42.9996550  0 20
G01  24853227.71100   -400073.56810     -1883.19600        28.99300  24853034.94700   -443995.67710     -1406.04900        21.00500
G10  21208407.96900   -915011.53400     -4136.09100        36.25700  21208404.67100  -1017331.38100     -3088.60700        28.05800
G12  22081883.87500   -775788.78100     -3531.99700        33.90400         0.00000         0.00000         0.00000         0.00000
G14  21404059.12100     27041.68600        72.07800        35.43600         0.00000         0.00000         0.00000         0.00000
G20  23197831.91700  -1178633.02700     -5318.53500        28.22800         0.00000         0.00000         0.00000         0.00000
G25  20968357.55200   -295174.43200     -1423.57800        39.67600  20968359.05200   -320831.76300     -1063.03600        38.54800
G31  21814031.60500    156664.85300       629.87600        37.80700         0.00000         0.00000         0.00000         0.00000
G32  20535533.99000   -181440.22200      -874.30700        38.79200  20535536.08900   -196231.69100      -652.89000        32.48900
R06  21620126.44300  -1100194.29000     -5114.99700        26.02700
R09  19288984.36100   -570597.51500     -2667.33400        33.65400
R16  22970644.70100  -1255608.26600     -5691.61100        25.60600
R07  19198161.03800   -380812.15300     -1819.18500        32.78200
R08  21039581.64500    361377.54900      1569.53500        30.59900
C04  39144415.72800   -203977.17400     -1618.91200        36.06900
C06  36008299.71700  -1693736.76500     -1572.85200        30.98300
E01  26260313.50600     78595.44900      1148.43900        30.22000  26260292.22100     77030.14300       857.59000        31.61800
E07  28794325.44600   -777159.62910     -4279.99500         7.00000  28794389.00500  -1585302.67710     -3186.00200         7.00000
E19  23347102.78100   -183959.62100     -1023.79400        29.55800  23347103.08200   -154793.29400      -764.53400        26.39100
E21  23509385.83600   -152146.99700     -1026.33700        31.38900  23509385.83600   -131997.58800      -766.40100        28.75600
E27  24967113.76900   -574541.53100     -3703.11100        35.28700  24967120.36500   -465693.68400     -2765.30300        30.44900
> 2018 12 17 07 31 43.9996550  0 20
G01  24853286.86700   -401957.16110     -1883.59300        26.61000  24853108.79200   -445402.49210     -1405.27700        19.85000
G10  21208910.81900   -919147.93300     -4136.39900        36.36800  21208906.02000  -1020420.33200     -3088.95100        27.78600
G12  22082268.30700   -779321.28800     -3532.50700        33.20200         0.00000         0.00000         0.00000         0.00000
G14  21403760.02800     27113.76400        72.07800        35.38600         0.00000         0.00000         0.00000         0.00000
G20  23198557.51500  -1183951.52100     -5318.49400        28.18200         0.00000         0.00000         0.00000         0.00000
G25  20968342.36100   -296598.64000     -1424.20800        39.73500  20968344.15900   -321895.26400     -1063.50100        38.55200
G31  21813626.08400    157294.52500       629.67200        38.07200         0.00000         0.00000         0.00000         0.00000
G32  20535414.77000   -182314.68300      -874.46100        38.65100  20535416.26700   -196884.71500      -653.02400        32.74600
R06  21620813.66300  -1105309.79710     -5116.08700        24.99600
R09  19289183.52000   -573265.35500     -2667.84000        33.85400
R16  22971406.87000  -1261299.78810     -5692.79700        25.13300
R07  19198219.29500   -382631.98100     -1819.82800        32.55600
R08  21038995.95000    362946.95400      1569.40500        30.46400
C04  39144440.11100   -205595.94200     -1618.76800        36.20300
C06  36008316.60500  -1695309.50700     -1572.74200        30.93600
E01  26259809.95400     79743.84600      1148.39700        30.38700  26259788.36800     77887.66700       857.52400        31.44400
E07  28794854.07900   -781439.62410     -4279.99500         7.00000  28794914.33900  -1588492.91410     -3181.35200         7.00000
E19  23347013.54100   -184983.08100     -1024.06100        29.28900  23347011.74300   -155557.92100      -764.62700        26.30500
E21  23509294.79400   -153173.60500     -1026.60800        31.35700  23509296.29500   -132764.24000      -766.65100        28.52300
E27  24967536.57500   -578244.75100     -3703.22000        35.31100  24967537.17700   -468459.09200     -2765.40900        30.44300
> 2018 12 17 07 31 44.9996530  0 20
G01  24853300.33000   -403841.75510     -1884.59400        24.61000  24853106.06500   -446809.83510     -1403.42500        18.86100
G10  21209343.39200   -923285.13000     -4137.19700        36.52800  21209336.79600  -1023509.76700     -3089.43500        27.34900
G12  22082589.05500   -782854.67000     -3533.38200        32.95700         0.00000         0.00000         0.00000         0.00000
G14  21403384.65700     27185.41100        71.64700        35.02800         0.00000         0.00000         0.00000         0.00000
G20  23199213.13200  -1189270.46500     -5318.94500        27.54000         0.00000         0.00000         0.00000         0.00000
G25  20968258.39100   -298023.73200     -1425.09200        39.76100  20968258.09000   -322959.47900     -1064.21400        38.47100
G31  21813151.48100    157923.57900       629.05400        38.25800         0.00000         0.00000         0.00000         0.00000
G32  20535226.47400   -183189.80500      -875.12300        38.86200  20535224.97300   -197538.16700      -653.45200        32.44500
R06  21621421.01800  -1110425.79910     -5113.54800        24.82300
R09  19289321.99600   -575934.13400     -2668.77900        33.89600
R16  22972135.93600  -1266991.59400     -5691.80600        25.64800
R07  19198204.87300   -384452.74300     -1820.76200        32.95400
R08  21038336.38000    364515.80100      1568.84600        30.39000
C04  39144394.21200   -207214.93900     -1618.99700        36.13000
C06  36008260.51500  -1696882.60500     -1573.09900        30.80300
E01  26259234.62500     80891.73400      1147.88800        30.35000  26259212.73800     78744.90700       857.24000        31.38400
E07  28795311.23500   -785719.61910     -4279.99500         7.00000  28795381.08400  -1591681.41210     -3190.25100         7.00000
E19  23346844.72700   -186005.45000     -1023.14600        29.41200  23346848.92800   -156322.85200      -764.93200        26.30200
E21  23509134.97600   -154200.88300     -1027.27800        31.55900  23509134.68000   -133531.35700      -767.11700        28.39200
E27  24967886.40400   -581948.49300     -3703.74200        35.38600  24967886.10700   -471224.86200     -2765.77000        30.18100
> 2018 12 17 07 31 45.9996520  0 20
G01  24853380.77500   -405727.17210     -1885.24000        24.31100  24853178.71500   -448217.42210     -1407.82400        19.69700
G10  21209839.64600   -927422.67900     -4137.55000        36.42200  21209837.24600  -1026599.48900     -3089.72200        27.92100
G12  22082972.58900   -786388.58100     -3533.91100        32.96800         0.00000         0.00000         0.00000         0.00000
G14  21403090.35900     27256.94500        71.53400        35.04800         0.00000         0.00000         0.00000         0.00000
G20  23199939.02700  -1194589.48100     -5319.01600        28.22600         0.00000         0.00000         0.00000         0.00000
G25  20968242.59800   -299449.56200     -1425.83000        39.77200  20968243.49700   -324024.21700     -1064.73800        38.48900
G31  21812750.75900    158552.40300       628.82400        38.43900         0.00000         0.00000         0.00000         0.00000
G32  20535105.15500   -184065.07300      -875.26800        38.92000  20535106.35500   -198191.80800      -653.64100        32.61700
R06  21622089.05200  -1115542.19910     -5116.48400        24.25400
R09  19289539.74000   -578603.47500     -2669.34100        34.17000
R16  22972926.88400  -1272683.40500     -5691.81100        26.01200
R07  19198272.12600   -386274.09800     -1821.35500        33.24500
R08  21037744.98300    366084.52400      1568.72400        30.26500
C04  39144418.89600   -208833.82700     -1618.88800        35.95800
C06  36008275.90200  -1698455.60400     -1572.99800        30.91000
E01  26258729.87300     82039.57400      1147.84000        30.42900  26258708.28700     79602.02700       857.12000        31.71300
E07  28795839.56700   -789999.61510     -4279.99500         7.00000  28795908.22100  -1594871.66310     -3190.25100         8.85100
E19  23346756.98800   -187030.12900     -1023.41300        28.83200  23346757.59000   -157088.01500      -765.16300        26.48500
E21  23509040.64000   -155228.56300     -1027.68000        31.39600  23509043.63700   -134298.73600      -767.37800        28.79500
E27  24968308.01000   -585652.37900     -3703.88700        35.41800  24968304.11400   -473990.75900     -2765.89600        30.15600
> 2018 12 17 07 31 46.9996510  0 20
G01  24853450.12200   -407612.98710     -1885.81500        23.17400  24853253.75900   -449625.61510     -1408.80500        19.14300
G10  21210343.09300   -931560.99800     -4138.31800        36.17000  21210338.29900  -1029689.79100     -3090.30200        27.71400
G12  22083366.91200   -789923.33700     -3534.75600        32.55600         0.00000         0.00000         0.00000         0.00000
G14  21402783.17000     27328.07900        71.13400        35.24700         0.00000         0.00000         0.00000         0.00000
G20  23200669.12200  -1199908.82500     -5319.34400        28.39500         0.00000         0.00000         0.00000         0.00000
G25  20968226.20800   -300876.19800     -1426.63600        39.67200  20968229.20500   -325089.59200     -1065.37500        38.47500
G31  21812344.03800    159180.62900       628.22500        38.51500         0.00000         0.00000         0.00000         0.00000
G32  20534985.93500   -184940.92500      -875.85100        39.19100  20534987.13500   -198845.86000      -654.05300        32.74800
R06  21622781.07100  -1120659.18610     -5117.55200        24.83900
R09  19289765.28400   -581273.77400     -2670.29900        34.18400
R16  22973710.94000  -1278375.52300     -5692.11800        26.95300
R07  19198329.78100   -388096.45400     -1822.35600        33.52300
R08  21037156.29100    367652.49700      1567.97300        30.14000
C04  39144444.17200   -210452.96100     -1619.13400        35.93900
C06  36008294.28600  -1700028.84500     -1573.24100        31.14300
E01  26258223.31900     83186.99500      1147.42200        30.34100  26258203.83200     80458.89100       856.86400        31.58300
E07  28796369.39900   -794279.61010     -4279.99500         7.00000  28796439.24800  -1598062.05410     -3190.25100         7.00000
E19  23346668.04800   -188053.27400     -1026.81200        28.75700  23346668.04800   -157853.52200      -765.50700        26.29500
E21  23508948.40300   -156256.87900     -1028.31600        31.70800  23508953.49800   -135066.65000      -767.91400        28.86300
E27  24968734.41400   -589356.77300     -3704.39400        35.51100  24968722.72300   -476757.03600     -2766.27800        29.86200
> 2018 12 17 07 31 47.9996500  0 20
G01  24853520.97000   -409499.63410     -1886.91300        23.11700  24853324.01000   -451034.44910     -1407.69300        20.24200
G10  21210838.14700   -935700.12400     -4139.12600        35.96400  21210839.64800  -1032780.65800     -3090.86700        27.70300
G12  22083745.64700   -793459.03000     -3535.69300        32.27900         0.00000         0.00000         0.00000         0.00000
G14  21402488.27400     27398.66500        70.58600        34.62600         0.00000         0.00000         0.00000         0.00000
G20  23201397.71200  -1205228.67900     -5319.85400        28.99100         0.00000         0.00000         0.00000         0.00000
G25  20968215.51100   -302304.09600     -1427.89700        39.73800  20968215.21500   -326155.80800     -1066.21700        38.41800
G31  21811938.21600    159808.17500       627.54700        38.59300         0.00000         0.00000         0.00000         0.00000
G32  20534866.11400   -185817.48500      -876.56000        39.22500  20534867.61400   -199500.47100      -654.61000        32.62900
R06  21623424.82200  -1125776.96710     -5120.90500        24.56500
R09  19289989.62400   -583945.11000     -2671.33700        34.28200
R16  22974519.57900  -1284068.05200     -5692.52900        28.01300
R07  19198385.34300   -389919.90500     -1823.45100        33.27000
R08  21036590.38100    369219.87400      1567.37700        30.19000
C04  39144469.15700   -212072.40800     -1619.44700        36.10000
C06  36008309.37100  -1701602.53300     -1573.68800        31.11600
E01  26257720.06400     84333.85100      1146.85500        29.90400  26257699.38100     81315.27500       856.38400        31.67600
E07  28796861.45600   -798559.60510     -4279.99500         7.00000  28796966.08300  -1601252.30410     -3189.96500        10.38000
E19  23346578.20600   -189079.07400     -1026.45400        28.98800  23346577.00600   -158619.57600      -766.05400        26.35500
E21  23508859.46300   -157285.89400     -1029.01400        31.42400  23508864.55900   -135835.07800      -768.42900        29.02600
E27  24969151.52300   -593061.77200     -3704.99900        35.47600  24969143.12900   -479523.77600     -2766.73900        30.09700
> 2018 12 17 07 31 48.9996490  0 20
G01  24853525.74300   -411386.61310     -1886.97900        25.52800  24853328.77800   -452444.06110     -1412.50100        19.76300
G10  21211269.82200   -939839.92300     -4139.79900        35.46500  21211269.52100  -1035872.10300     -3091.44500        27.71000
G12  22084065.20000   -796995.30700     -3536.27700        32.41600         0.00000         0.00000         0.00000         0.00000
G14  21402118.60000     27468.99900        70.33400        35.01000         0.00000         0.00000         0.00000         0.00000
G20  23202050.93500  -1210548.80600     -5320.12700        29.49500         0.00000         0.00000         0.00000         0.00000
G25  20968127.34800   -303732.69500     -1428.60000        39.71100  20968128.84500   -327222.65000     -1066.84200        38.63100
G31  21811461.81600    160435.26300       627.08700        38.51400         0.00000         0.00000         0.00000         0.00000
G32  20534677.81700   -186694.44600      -876.96200        39.31000  20534677.21900   -200155.29700      -654.82600        32.69800
R06  21624039.37100  -1130895.35900     -5118.39200        25.51600
R09  19290114.61100   -586617.18600     -2672.07600        34.42700
R16  22975269.93400  -1289760.79000     -5692.73800        28.71500
R07  19198349.93600   -391744.14800     -1824.24200        33.37400
R08  21035946.39800    370786.81700      1566.94400        30.28800
C04  39144422.66000   -213691.96400     -1619.55500        36.19800
C06  36008253.88400  -1703176.35600     -1573.82300        31.28600
E01  26257136.34100     85480.40900      1146.55800        30.37000  26257124.34800     82171.45200       856.17700        31.53700
E07  28797356.38400   -802841.54610     -4279.99500         7.00000  28797425.63500  -1604442.49810     -3190.25100         7.00000
E19  23346408.79500   -190103.66800     -1027.02600        29.23800  23346414.19100   -159385.82700      -766.25000        26.60800
E21  23508698.74700   -158315.46700     -1029.57300        31.36300  23508702.34200   -136603.91400      -768.83600        28.87600
E27  24969502.55100   -596767.16700     -3705.39500        35.43500  24969489.96100   -482290.75900     -2766.98300        30.40600
> 2018 12 17 07 31 49.9996480  0 21
G01  24853611.28000   -413274.67010     -1888.05600        27.81100  24853401.72400   -453853.89110     -1413.81000        19.63100
G10  21211771.17100   -943980.20800     -4140.28500        35.74500  21211770.87400  -1038963.83800     -3091.73500        27.54700
G12  22084452.32900   -800532.38900     -3537.08200        32.03200         0.00000         0.00000         0.00000         0.00000
G14  21401817.70600     27539.03200        70.03300        34.61200         0.00000         0.00000         0.00000         0.00000
G20  23202781.62300  -1215869.15100     -5320.34400        30.12100         0.00000         0.00000         0.00000         0.00000
G22  25140780.97500     18611.18410      1440.55000        24.05500         0.00000         0.00010         0.00000         0.00000
G25  20968113.65400   -305162.11400     -1429.41900        39.58800  20968115.45200   -328290.04300     -1067.39300        38.57200
G31  21811062.29300    161061.91800       626.65600        38.65000         0.00000         0.00000         0.00000         0.00000
G32  20534558.89800   -187571.86000      -877.41400        39.49100  20534558.59700   -200810.53500      -655.23800        32.70400
R06  21624716.70100  -1136014.11900     -5118.76000        25.42100
R09  19290340.45200   -589289.98500     -2672.79900        34.45900
R16  22976043.79400  -1295453.67500     -5692.88400        29.46500
R07  19198412.99300   -393569.19800     -1825.05000        33.48400
R08  21035375.39200    372353.39700      1566.58000        30.53700
C04  39144447.93700   -215311.58900     -1619.62600        36.10200
C06  36008270.47100  -1704750.28500     -1573.93000        31.37800
E01  26256633.38600     86626.68100      1146.27200        30.29700  26256620.49500     83027.48400       856.03200        31.55700
E07  28797885.61400   -807123.49210     -4280.00300         7.00000  28797952.77100  -1607632.74910     -3190.25100         8.40400
E19  23346321.95400   -191130.32600     -1025.77600        29.30700  23346323.45400   -160152.42400      -766.59700        26.68200
E21  23508607.10700   -159345.55000     -1030.08300        31.59700  23508612.80500   -137373.12100      -769.20700        28.97400
E27  24969922.36000   -600472.84600     -3705.67800        35.57900  24969909.16700   -485057.96800     -2767.20800        30.30400
> 2018 12 17 07 31 50.9996470  0 21
G01  24853686.62500   -415163.33310     -1888.66300        27.57500  24853474.37400   -455264.20610     -1410.84700        19.34700
G10  21212276.42000   -948120.97600     -4140.76800        35.85400  21212272.82100  -1042055.93100     -3092.09400        27.47200
G12  22084840.65700   -804070.01500     -3537.62500        31.77100         0.00000         0.00000         0.00000         0.00000
G14  21401516.21400     27608.95300        69.92100        34.56200         0.00000         0.00000         0.00000         0.00000
G20  23203509.01800  -1221189.56500     -5320.41400        31.10100         0.00000         0.00000         0.00000         0.00000
G22  25140215.66700     20051.87510      1440.61800        23.62600         0.00000         0.00010         0.00000         0.00000
G25  20968097.26400   -306592.14300     -1430.02900        39.66400  20968101.46100   -329357.97500     -1067.93200        38.69800
G31  21810657.06900    161688.26900       626.35000        38.61400         0.00000         0.00000         0.00000         0.00000
G32  20534441.47600   -188449.51200      -877.65300        39.66700  20534439.97900   -201465.91200      -655.37700        32.75300
R06  21625394.32800  -1141133.29700     -5119.17800        25.66900
R09  19290550.40400   -591963.49600     -2673.51000        34.30500
R16  22976837.44300  -1301146.59200     -5692.91800        29.72500
R07  19198489.23700   -395394.97800     -1825.78000        33.78500
R08  21034809.48200    373919.60500      1566.20800        30.38600
C04  39144472.92100   -216931.15800     -1619.56900        35.88400
C06  36008289.75300  -1706324.22300     -1573.93800        31.09600
E01  26256131.33500     87772.81400      1146.13300        29.92200  26256115.74300     83883.32800       855.84400        31.57600
E07  28798413.64900   -811405.05610     -4281.94700         7.00000  28798483.79800  -1610823.00010     -3190.25100         7.00000
E19  23346232.11600   -192156.04600     -1026.83500        29.15500  23346233.31500   -160919.25300      -766.82900        26.06700
E21  23508515.16600   -160376.01200     -1030.46100        31.60400  23508522.96200   -138142.65600      -769.53500        28.85400
E27  24970344.26700   -604178.74500     -3705.89900        35.72000  24970328.37400   -487825.37600     -2767.40800        30.27200
> 2018 12 17 07 31 51.9996460  0 21
G01  24853680.00300   -417052.46210     -1889.12900        25.98700  24853475.84400   -456675.03810     -1408.86000        17.94700
G10  21212705.99700   -952262.28500     -4141.30900        36.04100  21212705.69600  -1045148.47000     -3092.53900        27.00600
G12  22085162.00700   -807608.23800     -3538.22300        31.54600         0.00000         0.00000         0.00000         0.00000
G14  21401144.44200     27678.64000        69.68600        34.45200         0.00000         0.00000         0.00000         0.00000
G20  23204164.93700  -1226510.19000     -5320.62500        31.78900         0.00000         0.00000         0.00000         0.00000
G22  25139578.57700     21492.25900      1440.38400        23.80000         0.00000         0.00000         0.00000         0.00000
G25  20968015.99000   -308022.96300     -1430.82000        39.58500  20968016.29100   -330426.42300     -1068.44800        38.52900
G31  21810185.17100    162314.28900       626.02000        38.54200         0.00000         0.00000         0.00000         0.00000
G32  20534251.38200   -189327.51600      -878.00400        39.79400  20534249.58000   -202121.62900      -655.71700        32.90100
R06  21625977.69700  -1146252.99400     -5119.69700        26.00800
R09  19290683.78500   -594637.66300     -2674.16700        34.07500
R16  22977543.42700  -1306839.53300     -5692.94100        30.10500
R07  19198451.73700   -397221.45500     -1826.47700        33.95800
R08  21034158.00400    375485.59300      1565.98800        30.39600
C04  39144426.72200   -218551.21300     -1620.05500        35.93300
C06  36008233.06600  -1707898.19300     -1573.97000        31.02300
E01  26255556.90400     88918.74200      1145.92800        30.29900  26255541.01600     84739.04100       855.71300        31.38100
E07  28798871.10200   -815687.00210     -4281.94700         7.00000  28798939.15800  -1614013.25110     -3190.25100         7.00000
E19  23346069.00000   -193183.21300     -1026.99500        29.47200  23346070.19900   -161686.16000      -766.90700        25.91500
E21  23508355.35300   -161406.90700     -1030.89500        31.52000  23508361.34700   -138912.44900      -769.79300        29.22000
E27  24970693.49400   -607884.96100     -3706.21600        35.55400  24970676.40600   -490593.01100     -2767.63500        30.58700
> 2018 12 17 07 31 52.9996450  0 21
G01  24853750.85100   -418942.33710     -1889.87500        25.53300  24853551.19000   -458086.36210     -1410.48200        18.33400
G10  21213210.04600   -956404.25400     -4141.97000        35.99300  21213205.54800  -1048241.50300     -3093.03300        26.67000
G12  22085548.23700   -811147.42300     -3539.18600        31.25100         0.00000         0.00000         0.00000         0.00000
G14  21400848.34600     27748.00300        69.36300        34.49800         0.00000         0.00000         0.00000         0.00000
G20  23204893.53200  -1231831.11900     -5320.92900        32.55200         0.00000         0.00000         0.00000         0.00000
G22  25139019.26200     22932.32100      1440.06200        24.09900         0.00000         0.00000         0.00000         0.00000
G25  20967999.60000   -309454.71000     -1431.74700        39.56700  20968002.89800   -331495.56000     -1069.13700        38.65400
G31  21809782.34600    162939.76400       625.47500        38.27200         0.00000         0.00000         0.00000         0.00000
G32  20534132.75900   -190206.08200      -878.56600        39.95300  20534130.96200   -202777.62500      -655.99600        32.88400
R06  21626662.21700  -1151373.16310     -5120.28500        26.29200
R09  19290894.63600   -597312.72200     -2675.05900        34.09200
R16  22978319.08900  -1312532.79200     -5693.25900        30.28300
R07  19198519.28600   -399048.88700     -1827.43100        33.71200
R08  21033572.60600    377051.04800      1565.45500        30.02300
C04  39144452.30400   -220170.46500     -1619.25200        35.82300
C06  36008248.15200  -1709472.39500     -1574.20200        31.08800
E01  26255051.24900     90064.31700      1145.57500        30.19500  26255036.86100     85594.48100       855.44100        31.42400
E07  28799400.63300   -819968.94910     -4281.94700         7.00000  28799469.88400  -1617203.72010     -3190.25100        10.17700
E19  23345982.75600   -194210.21500     -1026.25600        28.73400  23345980.95900   -162453.54400      -767.38400        26.21500
E21  23508268.80800   -162438.47100     -1031.56500        31.83400  23508271.80600   -139682.78100      -770.33200        29.22800
E27  24971111.50500   -611591.53600     -3706.57600        35.70000  24971096.81200   -493360.91200     -2767.90200        29.72700
> 2018 12 17 07 31 53.9996440  0 21
G01  24853831.89400   -420832.94110     -1890.60400        26.39800  24853628.33300   -459498.17910     -1413.86500        18.69000
G10  21213709.29700   -960546.72000     -4142.46500        35.78900  21213707.19900  -1051334.84500     -3093.34200        26.36800
G12  22085932.06800   -814687.04600     -3539.62300        31.85500         0.00000         0.00000         0.00000         0.00000
G14  21400548.94800     27817.18700        69.18500        34.76200         0.00000         0.00000         0.00000         0.00000
G20  23205623.02500  -1237152.22900     -5321.11000        33.09900         0.00000         0.00000         0.00000         0.00000
G22  25138465.34500     24372.05810      1438.83200        23.65400         0.00000         0.00010         0.00000         0.00000
G25  20967986.50800   -310887.18200     -1432.47200        39.46400  20967989.80600   -332565.27700     -1069.71700        38.83200
G31  21809378.92300    163564.83500       625.07000        37.70500         0.00000         0.00000         0.00000         0.00000
G32  20534013.54000   -191084.96800      -878.88600        40.08000  20534011.74200   -203433.94300      -656.31800        32.95200
R06  21627350.04400  -1156493.85200     -5120.68900        26.51500
R09  19291116.28000   -599988.45200     -2675.73000        34.26000
R16  22979098.64200  -1318226.13100     -5693.33900        30.48400
R07  19198561.65600   -400877.04500     -1828.15800        33.27900
R08  21032997.40300    378616.16500      1565.11700        30.28100
C04  39144477.28400   -221790.22800     -1619.76300        35.89300
C06  36008263.24200  -1711046.68100     -1574.28600        31.21200
E01  26254547.09900     91209.64700      1145.33000        30.46900  26254533.00800     86449.72800       855.24600        31.34300
E07  28799929.56600   -824250.89510     -4281.94700         7.00000  28799994.62100  -1620396.99510     -3188.82200         7.00000
E19  23345890.21800   -195238.14500     -1028.36700        28.96800  23345891.11600   -163221.09800      -767.55400        26.35100
E21  23508180.46700   -163470.40400     -1031.93300        31.77300  23508182.26400   -140453.36400      -770.58300        29.15200
E27  24971533.70900   -615298.54500     -3707.00900        35.55600  24971515.72200   -496129.06700     -2768.15400        29.86200
> 2018 12 17 07 31 54.9996430  0 21
G01  24853767.28400   -422724.45110     -1891.50900        25.55600  24853557.12700   -460910.66210     -1417.05600        18.28800
G10  21214070.09300   -964689.87810     -4143.15800        35.38600  21214067.69400  -1054428.89510     -3094.87100        25.79800
G12  22086169.94900   -818227.55300     -3540.50700        31.68300         0.00000         0.00000         0.00000         0.00000
G14  21400113.19900     27885.94100        68.75300        34.82100         0.00000         0.00000         0.00000         0.00000
G20  23206208.06500  -1242473.70300     -5321.47400        33.48400         0.00000         0.00000         0.00000         0.00000
G22  25137770.27200     25811.42100      1439.36300        23.91300         0.00000         0.00000         0.00000         0.00000
G25  20967831.06100   -312320.50600     -1433.32400        39.44400  20967833.16000   -333635.65400     -1070.37700        38.71900
G31  21808833.44700    164189.36000       624.52600        36.90000         0.00000         0.00000         0.00000         0.00000
G32  20533753.76700   -191964.41100      -879.44300        40.09600  20533750.46900   -204090.69900      -656.75600        33.00100
R06  21627866.43000  -1161615.08100     -5121.23000        26.79300
R09  19291190.47800   -602665.09900     -2676.64800        34.64400
R16  22979740.34800  -1323919.71700     -5693.58500        30.30200
R07  19198485.65600   -402706.18500     -1829.14000        33.61300
R08  21032263.95700    380180.76600      1564.60100        29.82200
C04  39144359.61300   -223410.19800     -1619.97000        35.86500
C06  36008140.17000  -1712621.20100     -1574.52000        31.42600
E01  26253899.09400     92354.56600      1144.92000        30.23600  26253886.20300     87304.73500       855.00700        31.64800
E07  28800317.04400   -828532.84210     -4281.94700         7.00000  28800379.69900  -1623581.28010     -3196.12000         7.00000
E19  23345654.72700   -196265.94300     -1026.88100        28.82600  23345656.82500   -163988.96800      -767.87000        25.60000
E21  23507942.87800   -164503.02700     -1032.62200        31.78200  23507950.07100   -141224.49800      -771.13400        29.13500
E27  24971808.16600   -619005.87700     -3707.33200        35.47300  24971791.97600   -498897.55900     -2768.49300        29.74400
> 2018 12 17 07 31 55.9996420  0 20
G01         0.00000   -424617.07010     -1893.19500        22.89300  24853629.17500   -462323.43310     -1409.62100        18.87000
G10  21214569.04700   -968833.77110     -4143.89300        35.16600  21214570.24300  -1057523.27910     -3094.50500        25.70800
G12  22086559.18100   -821768.96100     -3541.40700        31.32000         0.00000         0.00000         0.00000         0.00000
G14  21399813.20400     27954.24900        68.30900        34.89200         0.00000         0.00000         0.00000         0.00000
G20  23206934.26000  -1247795.48800     -5321.78500        33.99600         0.00000         0.00000         0.00000         0.00000
G25  20967817.66800   -313754.82700     -1434.32200        39.45600  20967820.66500   -334706.76200     -1071.10900        38.83800
G31  21808429.72300    164813.37900       624.01900        35.89300         0.00000         0.00000         0.00000         0.00000
G32  20533633.34700   -192844.38400      -879.97300        40.00400  20533632.44900   -204747.79600      -657.09700        32.89700
R06  21628550.05100  -1166737.00900     -5121.92800        26.03800
R09  19291407.62400   -605342.62100     -2677.52200        34.81300
R16  22980516.90900  -1329613.53100     -5693.81400        30.15300
R07  19198537.61400   -404536.27800     -1830.09300        33.66800
R08  21031688.75400    381744.79100      1564.02500        29.73500
C04  39144383.99500   -225030.36300     -1620.16500        35.90400
C06  36008156.15900  -1714196.00000     -1574.79900        31.45600
E01  26253393.43900     93499.07200      1144.50600        30.26700  26253383.24800     88159.38300       854.64900        31.58900
E07  28800809.40200   -832814.78810     -4281.94700         7.00000  28800905.03400  -1626767.58210     -3201.34100         7.00000
E19  23345566.98700   -197294.83900     -1027.78000        28.88400  23345569.08600   -164757.33100      -768.36200        26.49100
E21  23507858.13500   -165536.23000     -1033.20300        31.83400  23507860.53400   -141995.99700      -771.49900        29.34700
E27  24972227.97400   -622713.72200     -3707.84400        35.42400  24972211.78500   -501666.37400     -2768.81500        29.90100
> 2018 12 17 07 31 56.9996410  0 21
G01         0.00000   -426509.74910     -1892.95500        21.33500  24853702.72300   -463737.10110     -1414.83500        17.83600
G10  21215072.49500   -972978.32700     -4144.55700        34.99700  21215073.69500  -1060618.30700     -3095.02800        25.71900
G12  22086943.31200   -825311.11000     -3542.14900        31.21700         0.00000         0.00000         0.00000         0.00000
G14  21399510.51200     28022.17900        67.93000        35.14900         0.00000         0.00000         0.00000         0.00000
G20  23207663.15200  -1253117.68200     -5322.19400        34.51000         0.00000         0.00000         0.00000         0.00000
G22  25136665.13200     28688.84500      1438.58200        24.32100         0.00000         0.00000         0.00000         0.00000
G25  20967806.07200   -315190.00400     -1435.17700        39.63000  20967807.87400   -335778.47600     -1071.71400        38.87600
G31  21808027.50000    165436.80100       623.42300        35.17700         0.00000         0.00000         0.00000         0.00000
G32  20533517.72700   -193724.87100      -880.48700        40.06300  20533513.82600   -205405.29300      -657.49700        32.84600
R06  21629227.68300  -1171859.62400     -5122.61400        26.07800
R09  19291628.06900   -608021.04600     -2678.42500        34.63400
R16  22981297.66600  -1335307.64700     -5694.11600        30.01600
R07  19198568.89300   -406367.16400     -1830.88600        33.32100
R08  21031109.94800    383308.23000      1563.43900        29.66800
C04  39144409.57300   -226650.71100     -1620.34800        35.89300
C06  36008172.44400  -1715771.02300     -1575.02200        31.37100
E01  26252890.48500     94643.21500      1144.14300        30.07700  26252878.79300     89013.75900       854.37600        31.39500
E07  28801375.50500   -837097.70810     -4281.94700         7.00000  28801436.36200  -1629973.94610     -3167.06100        13.24800
E19  23345471.15100   -198320.11100     -1028.10800        28.57700  23345477.44600   -165525.99400      -768.66300        26.03200
E21  23507773.68900   -166570.01800     -1033.78800        32.18200  23507770.69200   -142768.08900      -772.09200        29.24100
E27  24972645.98100   -626422.03900     -3708.31700        35.50900  24972632.49200   -504435.64000     -2769.26500        29.72800
> 2018 12 17 07 31 57.9996400  0 21
G01  24853969.33600   -428403.41410     -1894.63200        24.08900  24853781.36700   -465151.02110     -1414.94500        17.47100
G10  21215576.84500   -977123.40800     -4145.08100        35.20700  21215574.74300  -1063713.60000     -3095.29300        25.76900
G12  22087325.64200   -828853.87100     -3542.76100        31.16300         0.00000         0.00000         0.00000         0.00000
G14  21399214.11600     28090.05500        67.87600        34.99600         0.00000         0.00000         0.00000         0.00000
G20  23208387.24800  -1258439.97500     -5322.29300        34.64800         0.00000         0.00000         0.00000         0.00000
G22  25136117.50900     30127.10100      1438.25600        25.16400         0.00000         0.00000         0.00000         0.00000
G25  20967793.87900   -316626.01900     -1436.01500        39.60600  20967795.07900   -336850.79100     -1072.31500        38.85000
G31  21807626.17500    166059.92700       623.12500        34.32400         0.00000         0.00000         0.00000         0.00000
G32  20533397.90500   -194605.70200      -880.83100        39.99600  20533396.10700   -206063.10100      -657.80800        32.82000
R06  21629881.02800  -1176982.59500     -5122.97100        26.12200
R09  19291842.21800   -610700.18800     -2679.14200        34.68400
R16  22982063.12900  -1341001.81900     -5694.17200        29.63000
R07  19198650.23700   -408198.90500     -1831.74100        33.51700
R08  21030540.44300    384871.36600      1563.13600        29.84000
C04  39144434.55300   -228271.02900     -1620.31800        35.91100
C06  36008189.33100  -1717346.06100     -1575.03900        31.24200
E01  26252385.73300     95787.11600      1143.90100        30.22600  26252375.83800     89868.00900       854.25000        31.27100
E07  28801904.73900   -841380.63010     -4281.95400         7.18200  28801970.39100  -1633163.35310     -3111.57300        10.77200
E19  23345384.31000   -199349.80000     -1029.46500        29.18800  23345387.30700   -166294.82300      -768.82900        25.81200
E21  23507682.95200   -167604.33400     -1034.31600        32.38000  23507682.05400   -143540.39500      -772.30700        29.37100
E27  24973064.59000   -630130.57800     -3708.54000        35.43100  24973051.09700   -507205.00500     -2769.36500        29.71700
> 2018 12 17 07 31 58.9996390  0 21
G01  24853984.89700   -430297.43910     -1894.02500        25.47000  24853784.03700   -466565.47610     -1412.85700        17.86700
G10  21216008.51600   -981268.94300     -4145.53500        35.45800  21216006.11600  -1066809.29600     -3095.69600        26.06700
G12  22087638.29800   -832397.15300     -3543.28200        31.13400         0.00000         0.00000         0.00000         0.00000
G14  21398842.94100     28157.65500        67.60000        35.04800         0.00000         0.00000         0.00000         0.00000
G20  23209042.57000  -1263762.44500     -5322.47100        34.63600         0.00000         0.00000         0.00000         0.00000
G22  25135482.52200     31565.14100      1438.04000        26.14200         0.00000         0.00000         0.00000         0.00000
G25  20967711.71000   -318062.73400     -1436.71500        39.67400  20967711.40900   -337923.67400     -1072.88300        39.04700
G31  21807150.37800    166682.69900       622.77300        33.51800         0.00000         0.00000         0.00000         0.00000
G32  20533207.20900   -195486.88400      -881.18200        40.10300  20533206.31000   -206721.08100      -657.98100        32.85400
R06  21630467.99600  -1182106.03400     -5123.43900        25.52800
R09  19291985.49300   -613379.94900     -2679.76100        34.45200
R16  22982765.22100  -1346696.07500     -5694.25700        29.81500
R07  19198627.12400   -410031.28800     -1832.38400        33.74400
R08  21029887.46400    386434.28000      1562.91400        29.65300
C04  39144388.65900   -229891.85300     -1620.82400        35.77400
C06  36008132.94100  -1718921.17600     -1575.11500        31.41200
E01  26251806.50800     96930.90700      1143.79100        29.94200  26251800.21300     90722.13400       854.12500        31.58700
E07  28802362.49300   -845663.36110     -4282.92200         7.00000  28802435.94100  -1636340.65810     -3190.21300         9.92800
E19  23345223.89000   -200377.61000     -1030.37200        29.31800  23345228.38800   -167063.89700      -769.07400        25.72200
E21  23507523.43500   -168639.06200     -1034.72700        31.88600  23507521.63400   -144313.10300      -772.70800        29.21600
E27  24973410.82000   -633839.38300     -3708.80500        35.33400  24973399.42900   -509974.53400     -2769.52900        29.65400
